,Unnamed: 0.2,Unnamed: 0.1,Name,Url,County,Sites,Average_rent,Unnamed: 0,FullstreetAddress,Latitude,Longitude,latitude,longitude,House district,Senate district
0,0,0,Pridnia's Mobile Home Park,https://www.mhvillage.com/parks/15755, Alcona ,,,0,"116 West Church, Harrisville, MI, 48740",44.68205,-83.39782,44.6593946,-83.2946486,106,36
1,1,1,Ausable Mobile Home Village,https://www.mhvillage.com/parks/15815, Iosco ,15,,465,"331 First Street, Oscoda, MI, 48750",44.43481,-83.50601,44.41112469999999,-83.3310021,99,36
2,2,2,Ossineke Mobile Home Park,https://www.mhvillage.com/parks/15757, Montmorency ,12,,815,"Block 1, Old Ossineke Road, Ossineke, MI, 49766",44.9352,-83.43083,44.916832,-83.434601,106,36
3,3,3,Rose Lane Trailer Court,https://www.mhvillage.com/parks/15818, Iosco ,35,,468,"4263 Bissionette, Oscoda, MI, 48750",44.43481,-83.50601,44.439577,-83.349196,99,36
4,4,4,Van Ettan Village,https://www.mhvillage.com/parks/569, Iosco ,32,,469,"4385 Van Ettan Dam Road, Oscoda, MI, 48750",44.43481,-83.50601,44.4496292,-83.3390178,99,36
5,5,5,Hubbard Lake Trailer Park,https://www.mhvillage.com/parks/541, Oscoda ,,,938,"7298 Hurbert Road, Hubbard Lake, MI, 49747",44.85834,-83.6389,44.8595656,-83.5952386,106,36
6,6,6,Oscoda Mobile Home Park,https://www.mhvillage.com/parks/15819, Iosco ,,,470,"6445 Seminole Street, Oscoda, MI, 48750",44.43481,-83.50601,44.4666388,-83.3299695,99,36
7,7,7,Riverview Mobile Home Park,https://www.mhvillage.com/parks/15949, Montmorency ,,,828,"13021 Us 23 South, Ossineke, MI, 49766",44.88774,-83.43127,44.88715,-83.432241,106,36
8,8,8,Village Court,https://www.mhvillage.com/parks/15760, Montmorency ,,,831,"2300 Papin Street, Ossineke, MI, 49766",44.9352,-83.43083,44.9001598,-83.440872,106,36
9,9,9,Island View Estates,https://www.mhvillage.com/parks/15753, Luce ,37,,643,"801 Prospect Street, Munising, MI, 49862",46.40564,-86.61539,46.4032834,-86.6466014,109,38
10,10,10,Pioneer Village,https://www.mhvillage.com/parks/15829, Marquette ,90,,690,"777 Pioneer Road, Site 169, Marquette, MI, 49855",46.52561,-87.41541,46.527053,-87.40835,109,38
11,11,11,Silver Creek Estates,https://www.mhvillage.com/parks/15832, Marquette ,90,230,691,"627 Willow Road, Marquette, MI, 49855",46.56109,-87.36552,46.48871949999999,-87.3603077,109,38
12,12,12,Brier's Mobile Home Court,https://www.mhvillage.com/parks/556, Delta ,10,,269,"8467 P5 Road, Gladstone, MI, 49837",45.88084,-87.1059,45.8527435,-87.0218049,108,38
13,13,13,Oak Bluff Estates,https://www.mhvillage.com/parks/15908, Delta ,175,,270,"2722 South Hill Road, Gladstone, MI, 49837",45.88084,-87.1059,45.8407969,-87.046036,108,38
14,14,14,Birch Grove Mobile Home Community,https://www.mhvillage.com/parks/15838, Marquette ,80,,693,"500 Pioneer Road, Marquette, MI, 49855",46.56109,-87.36552,46.5282286,-87.4020545,109,38
15,15,15,NorthernAir Mobile Estates,https://www.mhvillage.com/parks/15841, Marquette ,150,,694,"642 South Mackinac Lane, Gwinn, MI, 49841",46.32394,-87.49016,46.252037,-87.382009,109,38
16,16,16,Whispering Pines Mobile Home Park,https://www.mhvillage.com/parks/15787, Delta ,,,272,"8741 0.8 Lane, Gladstone, MI, 49837",45.88084,-87.1059,45.8643142,-87.0641111,108,38
17,17,17,553 Mobile Estates,https://www.mhvillage.com/parks/15828, Marquette ,,,696,"Box 100 Star Route, Gwinn, MI, 49841",46.32394,-87.49016,46.28105559999999,-87.4409718,109,38
18,18,18,Lake Bluff Retirement Village,https://www.mhvillage.com/parks/100639, Delta ,,,273,"401 Kenneally Blvd., Gladstone, MI, 49837",45.88084,-87.1059,45.83543179999999,-87.0520023,108,38
19,19,19,Pine Acres Trailer Court,https://www.mhvillage.com/parks/15830, Marquette ,,,697,"3000 Us 41 South, Marquette, MI, 49855",46.55131,-87.45097,46.55131249999999,-87.4509712,109,38
20,20,20,Whitefish Hill Trailer Court,https://www.mhvillage.com/parks/15786, Delta ,,,275,"8455 Us Highway 2, Rapid River, MI, 49878",45.92293,-86.93786,45.9219704,-86.9370522,108,38
21,21,21,Hunters Glen,https://www.mhvillage.com/parks/29480, Allegan ,280,,21,"1132 Hunters Glen Boulevard, Wayland, MI, 49348",42.6919,-85.62058,42.7319567,-85.6579549,79,18
22,22,22,Dover Farms,https://www.mhvillage.com/parks/30327, Allegan ,60,435,23,"1590 Dover Drive, Martin, MI, 49070",42.54385,-85.62228,42.5363147,-85.6570769,43,18
23,23,23,Dumont Creek Estates,https://www.mhvillage.com/parks/15115, Allegan ,75,300,33,"1925 Laura Street, Allegan, MI, 49010",42.56072,-85.88961,42.560021,-85.8887086,43,20
24,24,24,Gun Lake Manufactured Home Community,https://www.mhvillage.com/parks/104895, Allegan ,59,,24,"19985 Marsh Road, Shelbyville, MI, 49344",42.5897,-85.53932,42.5897529,-85.5412505,43,18
25,25,25,Country Meadows,https://www.mhvillage.com/parks/516, Wayne ,577,,1162,"3211 Will Carleton Road, Flat Rock, MI, 48134",42.09412,-83.32407,42.0977342,-83.3241592,29,4
26,26,26,Windsor Woods Village,https://www.mhvillage.com/parks/15869, Allegan ,314,377,22,"1135 West Superior Street, Wayland, MI, 49348",42.6919,-85.62058,42.6778467,-85.6582892,43,18
27,27,27,Rabbit River ,https://www.mhvillage.com/parks/15125, Allegan ,102,,26,"3471 Homer Drive, Wayland, MI, 49348",42.6919,-85.62058,42.6723421,-85.6209719,43,18
28,28,28,Yankee Springs Meadows,https://www.mhvillage.com/parks/456, Allegan ,284,,27,"1330 North Patterson Road, Wayland, MI, 49348",42.6919,-85.62058,42.6716951,-85.5415259,43,18
29,29,29,Watson Mobile Home Community,https://www.mhvillage.com/parks/427, Allegan ,176,327,28,"1362 East M-89, Otsego, MI, 49078",42.47605,-85.72572,42.4473553,-85.6787513,42,18
30,30,30,Circle Inn Mobile Park,https://www.mhvillage.com/parks/452, Allegan ,20,,29,"11985 Marsh Road, Shelbyville, MI, 49344",42.5926,-85.58797,42.587762,-85.5232069,43,18
31,31,31,Country Acres Mobile Home Park,https://www.mhvillage.com/parks/240, Ottawa ,100,,974,"A-5904 142nd Avenue, Holland, MI, 49423",42.72504,-86.12528,42.7248901,-86.1267142,43,31
32,32,32,Dogwood Manor,https://www.mhvillage.com/parks/15114, Allegan ,76,,31,"5289 124th Avenue, Fennville, MI, 49408",42.59484,-86.06449,42.5948416,-86.0645049,43,20
33,33,33,Douglas Estates,https://www.mhvillage.com/parks/242, Allegan ,175,405,32,"2734 Blue Star Highway, Fennville, MI, 49408",42.6191,-86.21173,42.6166608,-86.2152133,38,20
34,34,34,Dunlop's Orchard Mobile Home Park,https://www.mhvillage.com/parks/15565, Allegan ,22,460,34,"12703 Pine Lake Rd, Plainwell, MI, 49080",42.50233,-85.53583,42.5023259,-85.535834,43,18
35,35,36,Lake Park Trailer Resort,https://www.mhvillage.com/parks/15121, Allegan ,60,,36,"2126 Lakeshore Drive, Fennville, MI, 49408",42.5766,-86.11992,42.5724427,-86.2292258,38,20
36,36,37,Maple Grove Estates,https://www.mhvillage.com/parks/15916, Lapeer ,210,415,574,"2070 South Almont Road, Imlay City, MI, 48444",43.06429,-83.04903,43.0049901,-83.0769877,65,26
37,37,38,Orchard Hills Village,https://www.mhvillage.com/parks/15903, Allegan ,167,380,38,"2400 56th Street, Fennville, MI, 49408",42.59692,-86.09719,42.5969397,-86.0972235,43,20
38,38,40,Pine Crest Mobile Villa,https://www.mhvillage.com/parks/15126, Allegan ,82,,40,"1160 West Bridge Street, Plainwell, MI, 49080",42.47683,-85.57617,42.4423429,-85.6574339,42,18
39,39,41,Pine Ridge Community,https://www.mhvillage.com/parks/15957, Allegan ,49,225,41,"4629 134th Avenue, Hamilton, MI, 49419",42.66761,-85.9991,42.6675748,-85.999021,43,20
40,40,42,Riverside Estates Mobile Home Community,https://www.mhvillage.com/parks/58541, Allegan ,41,445,42,"6200 Arrowhead Drive, Fennville, MI, 49408",42.5766,-86.11992,42.6294555,-86.1506118,38,20
41,41,67,Huron Lake Estates,https://www.mhvillage.com/parks/15989, Presque Isle ,36,,981,"1121 Bare Point Road, Alpena, MI, 49707",45.07332,-83.47292,45.0326609,-83.4595358,106,36
42,42,68,Lake Shore Estates,https://www.mhvillage.com/parks/538, Presque Isle ,58,,983,"8924 West Long Lake Road, Alpena, MI, 49707",45.07332,-83.47292,45.1764266,-83.4572109,106,36
43,43,69,Alpena Mobile Home Court,https://www.mhvillage.com/parks/15759, Presque Isle ,,,984,"624 Ripley Boulevard, Alpena, MI, 49707",45.07332,-83.47292,45.0589248,-83.4523865,106,36
44,44,70,Long Lake Trailer Court,https://www.mhvillage.com/parks/15758, Presque Isle ,,,987,"10080 Us 23 North, Alpena, MI, 49707",45.1942,-83.43574,45.1942028,-83.4357375,106,36
45,45,71,Mancelona Chamber Park,https://www.mhvillage.com/parks/15939, Otsego ,15,160,952,"Franklin Street, Mancelona, MI, 49659",44.923,-85.02892,44.9061264,-85.053322,105,37
46,46,72,Vacation Village Mobile Home Park,https://www.mhvillage.com/parks/15761, Leelanau ,65,417,593,"601 Shadywood, Elk Rapids, MI, 49629",44.90162,-85.39481,44.9016236,-85.3948069,104,37
47,47,73,Evergreen MHP,https://www.mhvillage.com/parks/548, Otsego ,70,,953,"707 State Street, East Jordan, MI, 49727",45.14116,-85.06066,45.1508338,-85.1129086,107,37
48,48,74,Chain O' Lakes Campground & Mobile Home Park,https://www.mhvillage.com/parks/15762, Kalkaska ,15,,543,"7231 S M 88 Highway, Bellaire, MI, 49615",44.96394,-85.20269,45.034508,-85.2524007,104,37
49,49,75,Town and Country,https://www.mhvillage.com/parks/15709, Leelanau ,192,398,587,"849 Manor Lane, Traverse City, MI, 49686",44.80961,-85.48382,44.7415472,-85.6029926,103,37
50,50,76,Fox Run,https://www.mhvillage.com/parks/128022, Otsego ,140,,954,"141 Fox Run Street, Boyne City, MI, 49712",45.22139,-85.00857,45.222632,-85.006826,107,37
51,51,77,Lakeview Village Mobile Home Park,https://www.mhvillage.com/parks/15769, Otsego ,152,250,951,"526 North Lake Street, Boyne City, MI, 49712",45.19724,-85.01066,45.2228329,-85.0153789,107,37
52,52,78,Woodcreek,https://www.mhvillage.com/parks/15992, Leelanau ,219,500,594,"501 Woodcreek Boulevard, Traverse City, MI, 49686",44.80961,-85.48382,44.7319822,-85.5656675,103,37
53,53,79,Valley Mobile Home Park,https://www.mhvillage.com/parks/15942, Kalkaska ,10,,538,"1268 Wood Road, Rapid City, MI, 49676",44.86895,-85.28593,44.7926376,-85.1986652,104,36
54,54,80,Cherryland Mobile Home Park,https://www.mhvillage.com/parks/15723, Leelanau ,52,,596,"3011 North Garfield, Traverse City, MI, 49686",44.80961,-85.48382,44.7310459,-85.5962575,103,37
55,55,81,Valleywood Cove,https://www.mhvillage.com/parks/92821, Leelanau ,,,598,"996 Garfield Woods Drive Suite D, Traverse City, MI, 49686",44.80961,-85.48382,44.7241791,-85.5948025,103,37
56,56,82,O & M Mobile Home Park,https://www.mhvillage.com/parks/15616, Ogemaw ,40,,908,"1090 Michigan 76, Alger, MI, 48610",44.14528,-84.19386,44.12562570000001,-84.1208666,99,36
57,57,83,Au Gres Harbor Mobile Court,https://www.mhvillage.com/parks/15617, Arenac ,,,63,"330 South Main Street, Au Gres, MI, 48703",44.05829,-83.66189,44.0464028,-83.686688,99,36
58,58,84,Lakeshore Village,https://www.mhvillage.com/parks/15612, Gladwin ,29,,346,"4061 Lakeshore Drive, Gladwin, MI, 48624",44.07468,-84.45566,44.083056,-84.317296,99,34
59,59,85,Lakefront Estates,https://www.mhvillage.com/parks/483, Gladwin ,68,,347,"385 West Brown Street, Beaverton, MI, 48612",43.88426,-84.45606,43.880663,-84.5016,95,34
60,60,86,Pleasant Beach Mobile Home Resort,https://www.mhvillage.com/parks/15582, Gladwin ,101,280,348,"4991 Wixom Road, Beaverton, MI, 48612",43.88426,-84.45606,43.8437431,-84.3356246,95,34
61,61,87,Westgate Trails,https://www.mhvillage.com/parks/15448, Bay ,50,250,101,"Lawrence & Horn Roads, Pinconning, MI, 48650",43.8457,-84.02266,43.8606442,-83.9717786,99,36
62,62,88,Greenbriar Village,https://www.mhvillage.com/parks/15611, Gladwin ,69,,349,"1305 North Springs Street, Gladwin, MI, 48624",44.07468,-84.45566,43.9925057,-84.49732,99,34
63,63,89,Tawas River Trailer Park,https://www.mhvillage.com/parks/15816, Iosco ,65,,466,"560 East M-55, Tawas City, MI, 48763",44.2254,-83.61976,44.2796455,-83.5176208,99,36
64,64,90,Twin Pines Mobile Home Park,https://www.mhvillage.com/parks/15849, Oscoda ,30,,934,"1766 Rau Road, West Branch, MI, 48661",44.34144,-84.20302,44.2337823,-84.1967111,99,36
65,65,91,Wixom Waters,https://www.mhvillage.com/parks/16041, Midland ,51,,747,"Po Box 222, Edenville, MI, 48620",43.80626,-84.3796,43.8095442,-84.3844304,95,34
66,66,92,Country Village Estates,https://www.mhvillage.com/parks/15848, Oscoda ,53,,936,"2522 Woodlawn Drive, West Branch, MI, 48661",44.34144,-84.20302,44.2615953,-84.2168192,99,36
67,67,93,Riverview Mobile Park,https://www.mhvillage.com/parks/15613, Gladwin ,48,,350,"2577 Lake Shore Drive, Gladwin, MI, 48624",44.07468,-84.45566,44.04044950000001,-84.3377755,99,34
68,68,94,Gladwin Village,https://www.mhvillage.com/parks/15614, Gladwin ,,,351,"805 North Bowery Avenue, Gladwin, MI, 48624",44.07468,-84.45566,43.9871876,-84.4902719,99,34
69,69,95,Key Mobile Home Court,https://www.mhvillage.com/parks/15615, Gladwin ,,,352,"221 North Lakeview Drive, Gladwin, MI, 48624",44.07468,-84.45566,43.9850277,-84.3563204,99,34
70,70,96,L'anse Mobile Home Court,https://www.mhvillage.com/parks/15763, Houghton ,40,,400,"99 Kelly Street, L Anse, MI, 49946",46.77943,-88.24087,46.7448981,-88.4420701,109,38
71,71,97,Sunnyside & Forest Lane MHC,https://www.mhvillage.com/parks/15840, Marquette ,134,,692,"728 N. Lake Dr, Ishpeming, MI, 49849",46.48779,-87.70757,46.4878571,-87.7076428,109,38
72,72,98,Forest Lane Mobile Park,https://www.mhvillage.com/parks/15837, Marquette ,20,,695,"3310 County Road 496, Ishpeming, MI, 49849",46.50624,-87.72879,46.488477,-87.761275,109,38
73,73,99,Beachview Mobile Court,https://www.mhvillage.com/parks/15804, Ontonagon ,20,,913,"1845 Jasberg Street, Hancock, MI, 49930",47.18742,-88.54504,47.1299383,-88.6144565,110,38
74,74,100,Birch Grove,https://www.mhvillage.com/parks/65356, Ontonagon ,31,,914,"400 Elevation St, Hancock, MI, 49930",47.18742,-88.54504,47.1272157,-88.5951574,110,38
75,75,101,Fob's Shady Acres,https://www.mhvillage.com/parks/571, Iron ,,,472,"1501 Us 2 West, Crystal Falls, MI, 49920",46.09401,-88.3695,46.0533019,-88.338085,110,38
76,76,102,Hiawatha Country Estates,https://www.mhvillage.com/parks/15820, Ontonagon ,,,917,"220 Hiawatha Drive, Iron River, MI, 49935",46.20261,-88.7372,46.0731162,-88.6448698,110,38
77,77,103,US 41 Trailer Court,https://www.mhvillage.com/parks/15833, Marquette ,,,698,"140 Midway Drive, Negaunee, MI, 49866",46.46324,-87.57237,46.539027,-87.522412,109,38
78,78,104,Meadowstone Manufactured Home Community,https://www.mhvillage.com/parks/15986, Barry ,231,400,85,"1812 Lavender Dr, Hastings, MI, 49058",42.63246,-85.27397,42.63245730000001,-85.2739742,78,18
79,79,105,Cider Mill Village,https://www.mhvillage.com/parks/15891, Barry ,258,,84,"425 Cider Mill Drive, Middleville, MI, 49333",42.72148,-85.46037,42.7216877,-85.4601174,79,18
80,80,106,Thornapple Lake Estates,https://www.mhvillage.com/parks/448, Barry ,215,295,86,"6335 Thornapple Lake Road, Nashville, MI, 49073",42.57761,-85.14295,42.6254149,-85.16969,78,18
81,81,107,Baltimore Terrace Mobile Home Park,https://www.mhvillage.com/parks/15564, Barry ,62,,87,"1485 Sandy Circle, Hastings, MI, 49058",42.63877,-85.32057,42.580795,-85.265715,78,18
82,82,108,Merlinos Hidden Valley Estates,https://www.mhvillage.com/parks/454, Barry ,78,,88,"4777 Barber Road, Hastings, MI, 49058",42.63877,-85.32057,42.7233404,-85.2637381,78,18
83,83,109,Pine Haven Subdivision,https://www.mhvillage.com/parks/16031, Barry ,,,89,"Pinedale, Hastings, MI, 49058",42.63877,-85.32057,42.6766565,-85.4081535,79,18
84,84,110,Barry's Resort,https://www.mhvillage.com/parks/15566, Barry ,50,,90,"2875 South Charlton Park Road, Hastings, MI, 49058",42.63877,-85.32057,42.6148406,-85.2112785,78,18
85,85,112,Westshore Estates,https://www.mhvillage.com/parks/15356, Bay ,110,,92,"3201 South Euclid Avenue, Bay City, MI, 48706",43.60941,-83.94517,43.5679605,-83.9158615,96,35
86,86,113,Alpine Village Mobile Home Park,https://www.mhvillage.com/parks/15457, Bay ,120,380,93,"2959 East Alpine Boulevard, Bay City, MI, 48706",43.60941,-83.94517,43.631615,-83.9368005,96,35
87,87,114,White Birch Estates,https://www.mhvillage.com/parks/482, Osceola ,50,,920,"411 Dailey Drive, Reed City, MI, 49677",43.88709,-85.50842,43.879193,-85.526569,100,34
88,88,115,Westwood Village,https://www.mhvillage.com/parks/349, Bay ,240,400,95,"2904 Stratford, Bay City, MI, 48706",43.64101,-83.9348,43.64088599999999,-83.9344032,96,35
89,89,116,Fairfield Manor,https://www.mhvillage.com/parks/430, Bay ,137,315,96,"1016 Parkside Boulevard, Bay City, MI, 48706",43.60941,-83.94517,43.6025019,-84.0117451,96,35
90,90,117,Saginaw Bay Estates,https://www.mhvillage.com/parks/364, Bay ,309,310,97,"1760 Saginaw Bay Estates Dr, Essexville, MI, 48732",43.61837,-83.77667,43.618683,-83.7768621,96,35
91,91,118,Brentwood Estates,https://www.mhvillage.com/parks/15352, Bay ,150,,98,"3278 Brentwood Drive, Bay City, MI, 48706",43.60941,-83.94517,43.6409509,-83.9234756,96,35
92,92,120,Wenona Beach Estates,https://www.mhvillage.com/parks/15449, Bay ,184,310,100,"4444 National Avenue, Bay City, MI, 48706",43.60941,-83.94517,43.6538714,-83.87447,96,35
93,93,121,Willow Tree Village,https://www.mhvillage.com/parks/16027, Bay ,78,,102,"3840 Riata Dr, Bay City, MI, 48706",43.63473,-83.89947,43.6349704,-83.9009644,96,35
94,94,122,Bay Village Mobile Home Estates,https://www.mhvillage.com/parks/33824, Bay ,102,280,103,"1274 West Hampton Road, Essexville, MI, 48732",43.60686,-83.77368,43.6179428,-83.8275491,96,35
95,95,123,Bayco Mobile Home Park,https://www.mhvillage.com/parks/15447, Bay ,61,,104,"2836 East Biscayne Drive, Bay City, MI, 48706",43.60941,-83.94517,43.6461828,-83.9371858,96,35
96,96,125,Pines Trailer Park,https://www.mhvillage.com/parks/15452, Bay ,29,,106,"2080 South Huron Road, Kawkawlin, MI, 48631",43.68189,-84.00666,43.678665,-83.959463,96,35
97,97,126,Shady Rest Mobile Home Park,https://www.mhvillage.com/parks/15355, Bay ,129,,107,"3612 East Shod Street, Bay City, MI, 48706",43.60941,-83.94517,43.6425235,-83.9092357,96,35
98,98,127,Linwood Mobile Home Park,https://www.mhvillage.com/parks/15454, Bay ,,,109,"1815 Pamela Drive, Linwood, MI, 48634",43.75989,-84.0515,43.7386598,-83.9647009,96,35
99,99,128,Mulberry Place,https://www.mhvillage.com/parks/15453, Bay ,,,110,"2627 Broadway, Bay City, MI, 48708",43.56721,-83.82227,43.5618397,-83.8929655,96,35
100,100,129,Harbor Village Community,https://www.mhvillage.com/parks/15766, Manistee ,17,,684,"1208 Elm Street, Frankfort, MI, 49635",44.62474,-86.1894,44.638539,-86.224654,104,32
101,101,130,Crystal Lake Mobile Home Park,https://www.mhvillage.com/parks/545, Manistee ,47,,687,"6695 Spruce Drive, Benzonia, MI, 49616",44.578,-86.05958,44.6244048,-86.1047103,104,32
102,102,131,Hillside Mobile Home Park,https://www.mhvillage.com/parks/543, Manistee ,,,689,"857 Glenn Avenue, Elberta, MI, 49628",44.61843,-86.22682,44.616149,-86.229958,104,32
103,103,132,Meadow Lane,https://www.mhvillage.com/parks/512, Leelanau ,483,774,589,"4310 Meadowlane Drive, Traverse City, MI, 49684",44.78319,-85.72485,44.6980181,-85.6624787,103,37
104,104,133,Suburban Estates Mobile Home Park,https://www.mhvillage.com/parks/15706, Leelanau ,75,365,588,"7230 Suburban Drive, Traverse City, MI, 49684",44.78319,-85.72485,44.7457345,-85.7189613,103,37
105,105,134,"Burke Silver Lake View, LLC",https://www.mhvillage.com/parks/15748, Leelanau ,49,300,590,"5099 Silver Lake View Road, Traverse City, MI, 49684",44.78319,-85.72485,44.7021032,-85.6800939,103,37
106,106,135,Dorsey's on Glen Lake,https://www.mhvillage.com/parks/15822, Leelanau ,54,,585,"8648 South Dorsey Park Road, Empire, MI, 49630",44.83906,-86.03016,44.856198,-86.012899,103,37
107,107,136,First Point Mobile Home Court,https://www.mhvillage.com/parks/33826, Leelanau ,53,,591,"7903 Birchpoint Drive, Traverse City, MI, 49684",44.78319,-85.72485,44.84500200000001,-85.700396,103,37
108,108,137,Silver Shores Manufactured Home Community,https://www.mhvillage.com/parks/15749, Wexford ,200,415,1188,"1257 Overlook Drive, Traverse City, MI, 49685",44.67299,-85.68222,44.6731578,-85.6821703,104,37
109,109,138,Buena Vista Estates,https://www.mhvillage.com/parks/15765, Wexford ,68,,1189,"17426 Honor Highway, Interlochen, MI, 49643",44.63341,-85.84129,44.6596851,-85.8900731,104,32
110,110,139,Kampvilla RV Park,https://www.mhvillage.com/parks/15827, Manistee ,40,,683,"16632 Pleasanton Highway, Bear Lake, MI, 49614",44.48312,-86.11764,44.48301,-86.1176,104,32
111,111,140,Pat's Place,https://www.mhvillage.com/parks/15740, Wexford ,20,,1185,"2951 North 7 Road, Mesick, MI, 49668",44.41834,-85.69718,44.380061,-85.76078,101,36
112,112,141,White Pines Mobile Home Park,https://www.mhvillage.com/parks/15752, Wexford ,33,,1186,"Paul Drive, Mesick, MI, 49668",44.41834,-85.69718,44.409668,-85.710618,101,36
113,113,142,R & R Chervenka,https://www.mhvillage.com/parks/15823, Leelanau ,,,597,"9640 Crain Hill Road, Traverse City, MI, 49684",44.78319,-85.72485,44.835399,-85.657271,103,37
114,114,143,Warren Dunes Village,https://www.mhvillage.com/parks/15882, Berrien ,314,,127,"11159 Red Arrow Highway, Bridgman, MI, 49106",41.93932,-86.56886,41.9130739,-86.5795381,38,17
115,115,144,Pleasant View Estates,https://www.mhvillage.com/parks/15363, Van Buren ,209,420,1108,"7604 Red Arrow Highway, Watervliet, MI, 49098",42.17555,-86.2514,42.1827437,-86.2743693,39,20
116,116,145,Silverbrook,https://www.mhvillage.com/parks/15964, Berrien ,176,400,129,"1000 West Wildflower, Niles, MI, 49120",41.84367,-86.25133,41.812754,-86.227146,37,17
117,117,146,North Shore Estates,https://www.mhvillage.com/parks/15362, Berrien ,97,,130,"1565 M 63 North, Benton Harbor, MI, 49022",42.12681,-86.33201,42.1426633,-86.4509896,38,20
118,118,147,Hills Haven,https://www.mhvillage.com/parks/15470, Berrien ,94,,126,"4205 Hills Haven Rd., Buchanan, MI, 49107",41.8788,-86.35676,41.8789212,-86.3576593,37,17
119,119,148,Lakewood Estates,https://www.mhvillage.com/parks/15687, Ionia ,89,,455,"1615 Tupperlake Street, Lake Odessa, MI, 48849",42.80836,-85.14312,42.7850377,-85.1298857,78,18
120,120,149,Sand Hill Community,https://www.mhvillage.com/parks/15463, Berrien ,80,,132,"5080 Saint Joseph Avenue, Stevensville, MI, 49127",42.00946,-86.51171,42.0251735,-86.516181,38,20
121,121,150,Riverside Estates,https://www.mhvillage.com/parks/414, Berrien ,87,,133,"14566 North Red Bud Trail, Buchanan, MI, 49107",41.8549,-86.3692,41.85489680000001,-86.3691971,37,17
122,122,151,Birchcrest Estates,https://www.mhvillage.com/parks/15475, Berrien ,110,,134,"2330 East Main Street, Niles, MI, 49120",41.84367,-86.25133,41.8088122,-86.2273528,37,17
123,123,152,Shawnee Community,https://www.mhvillage.com/parks/15344, Berrien ,161,,135,"1558 West Shawnee Road, Baroda, MI, 49101",41.94965,-86.48023,41.9416589,-86.4936692,37,17
124,124,153,Baroda Estates,https://www.mhvillage.com/parks/15476, Berrien ,151,,136,"8836 Stevensville Baroda Road, Baroda, MI, 49101",41.94965,-86.48023,41.9592888,-86.4887747,37,17
125,125,154,Country Acres Manufactured Home Community,https://www.mhvillage.com/parks/15465, Berrien ,64,,137,"2615 Old Us 31, Niles, MI, 49120",41.87435,-86.28344,41.8965515,-86.317593,37,17
126,126,155,Franklin Woods,https://www.mhvillage.com/parks/15358, Berrien ,268,,138,"1950 South 13th Street, Niles, MI, 49120",41.79377,-86.24637,41.7965565,-86.2457144,37,17
127,127,156,Glen Aire Mobile Home Park,https://www.mhvillage.com/parks/15359, Berrien ,130,,139,"1153 West Glenlord Road, Saint Joseph, MI, 49085",42.0621,-86.45045,42.0453464,-86.4815386,38,20
128,128,157,Indian Lake Woods,https://www.mhvillage.com/parks/32642, Berrien ,14,435,140,"54750 Highland Dr, Eau Claire, MI, 49111",42.0012,-86.21993,42.0011951,-86.2199253,37,17
129,129,158,Lakeshore Estates,https://www.mhvillage.com/parks/15360, Berrien ,98,320,141,"3017 Johnson Road, Stevensville, MI, 49127",42.00946,-86.51171,42.0073584,-86.5213613,38,20
130,130,159,Lakeside Cabins Resort,https://www.mhvillage.com/parks/90505, Berrien ,225,304,142,"7650 Warren Woods Rd, Three Oaks, MI, 49128",41.81761,-86.6127,41.8362576,-86.6390943,38,17
131,131,160,Niles Pines Mobile Estates,https://www.mhvillage.com/parks/15672, Berrien ,80,350,143,"900 Mobile Boulevard, Niles, MI, 49120",41.84367,-86.25133,41.8222234,-86.2066283,37,17
132,132,161,Ontario Place,https://www.mhvillage.com/parks/411, Berrien ,130,407,144,"2006 Ontario Road, Niles, MI, 49120",41.84367,-86.25133,41.7669833,-86.2301337,37,17
133,133,162,Ravine View Estates,https://www.mhvillage.com/parks/15461, Berrien ,158,,145,"5100 Little Paw Paw Lake Road 6A, Coloma, MI, 49038",42.21045,-86.33474,42.211301,-86.3344478,39,20
134,134,163,Ravines Mobile Home Park,https://www.mhvillage.com/parks/15364, Berrien ,225,,146,"2088 East Empire Avenue, Benton Harbor, MI, 49022",42.12681,-86.33201,42.0975244,-86.4077403,38,20
135,135,164,River Springs Estates,https://www.mhvillage.com/parks/15466, Berrien ,198,360,147,"9387 Us Highway 31, Berrien Springs, MI, 49103",41.95442,-86.33053,41.8965515,-86.317593,37,17
136,136,178,Tallgrass an FR Community,https://www.mhvillage.com/parks/15577, Branch ,239,275,148,"260 East Garfield Avenue, Coldwater, MI, 49036",41.92576,-84.99497,41.9266051,-84.9947853,35,17
137,137,179,North Trail Village,https://www.mhvillage.com/parks/16005, Branch ,42,225,149,"100 North Main Street, Quincy, MI, 49082",41.94902,-84.90112,41.95058,-84.882886,35,17
138,138,180,Grand Village Mobile Home Park,https://www.mhvillage.com/parks/15572, Branch ,25,220,150,"598 Union City Road, Coldwater, MI, 49036",41.90647,-85.04304,42.0092241,-85.0208437,35,17
139,139,181,Love's Lazy Lagoon,https://www.mhvillage.com/parks/84109, Branch ,61,116,151,"622 N Union City Rd, Coldwater, MI, 49036",41.90647,-85.04304,41.972653,-85.023804,35,17
140,140,182,Raymond's Landing,https://www.mhvillage.com/parks/84111, Branch ,70,152,152,"259 Earl Helen Dr, Coldwater, MI, 49036",41.90647,-85.04304,41.96617639999999,-85.0270349,35,17
141,141,183,Somerset Mobile Home Park,https://www.mhvillage.com/parks/15569, Branch ,56,255,153,"117 Burch Road, Coldwater, MI, 49036",41.90647,-85.04304,41.9709693,-85.0545031,35,17
142,142,184,Trail Tree Village,https://www.mhvillage.com/parks/15933, Branch ,143,309,154,"175 North Michigan Avenue, Coldwater, MI, 49036",41.90647,-85.04304,41.94626640000001,-84.9816219,35,17
143,143,185,Lakecrest Mobile Court,https://www.mhvillage.com/parks/15568, Branch ,23,,155,"645 Lakecrest Drive, Coldwater, MI, 49036",41.90647,-85.04304,41.9760849,-85.0395755,35,17
144,144,186,Turtle Lake,https://www.mhvillage.com/parks/42054, Branch ,,,156,"2101 9 Mile Road, Union City, MI, 49094",42.05908,-85.11405,42.1030752,-85.1189508,45,18
145,145,187,Avra Estates II,https://www.mhvillage.com/parks/15718, Branch ,30,,157,"27 West Garfield Avenue, Coldwater, MI, 49036",41.90647,-85.04304,41.9270897,-85.0067465,35,17
146,146,188,Mobile Manor Park,https://www.mhvillage.com/parks/15570, Branch ,29,,158,"104 First Street, Bronson, MI, 49028",41.87237,-85.15701,41.8663759,-85.1951221,35,17
147,147,189,Apollo XI Mobile Home Park,https://www.mhvillage.com/parks/15578, Branch ,72,,159,"550 East Chicago Street, Coldwater, MI, 49036",41.90647,-85.04304,41.9368995,-84.9794682,35,17
148,148,190,Cambridge Village,https://www.mhvillage.com/parks/15571, Branch ,32,,160,"748 Lott Road, Coldwater, MI, 49036",41.90647,-85.04304,41.93441199999999,-84.9393594,35,17
149,149,191,Countryside Mobile Court,https://www.mhvillage.com/parks/15576, Branch ,24,,161,"191 North Fillmore Court, Coldwater, MI, 49036",41.90647,-85.04304,41.9114269,-85.0217608,35,17
150,150,192,Avra Estates,https://www.mhvillage.com/parks/15573, Branch ,143,294,162,"11 West Garfield Avenue, Coldwater, MI, 49036",41.90647,-85.04304,41.9266245,-85.0073193,35,17
151,151,193,Kinsley Mobile Home Park,https://www.mhvillage.com/parks/460, Branch ,20,,163,"587 Marshall Road, Coldwater, MI, 49036",41.90647,-85.04304,41.9689224,-85.000884,35,17
152,152,194,Cole's Chippewa Circle Mobile Home Park,https://www.mhvillage.com/parks/52245, Branch ,,,164,"356 Chippewa Drive, Sherwood, MI, 49089",42.00683,-85.21925,42.0538,-85.257705,35,17
153,153,195,Green Acres Mobile Home Park,https://www.mhvillage.com/parks/52246, Branch ,,,165,"151 Wheatfield Drive, Sherwood, MI, 49089",42.00683,-85.21925,42.0424958,-85.2422404,35,17
154,154,196,Indian Cove Mobile Home Park,https://www.mhvillage.com/parks/15575, Branch ,,,166,"2928 Matteson Lake, Bronson, MI, 49028",41.87237,-85.15701,41.9285189,-85.2031832,35,17
155,155,197,Northmoor Estates,https://www.mhvillage.com/parks/37959, Branch ,,,167,"228 North Moor Drive, Coldwater, MI, 49036",41.90647,-85.04304,41.963294,-85.0402313,35,17
156,156,198,Thunderbird Village,https://www.mhvillage.com/parks/15524, Calhoun ,8,,175,"1145 Harmonia, Springfield, MI, 49015",42.26167,-85.23882,42.3329921,-85.2457871,44,18
157,157,199,Hickory Hills Village,https://www.mhvillage.com/parks/15515, Calhoun ,283,380,168,"10450 Six Mile Road, Battle Creek, MI, 49014",42.30294,-85.10537,42.2264206,-85.1748686,45,18
158,158,200,Bedford Hills,https://www.mhvillage.com/parks/15311, Calhoun ,339,,169,"110 Bejac Circle Drive, Battle Creek, MI, 49017",42.36071,-85.22936,42.3606307,-85.2289342,44,18
159,159,201,Avenue A Mobile Home Park,https://www.mhvillage.com/parks/15365, Calhoun ,145,,170,"1267 Avenue A, Springfield, MI, 49015",42.26167,-85.23882,42.3255984,-85.2518158,44,18
160,160,202,Creek Valley Mobile Home Park,https://www.mhvillage.com/parks/434, Calhoun ,166,,171,"79 Creek Valley Circle, Battle Creek, MI, 49017",42.39115,-85.19663,42.3633872,-85.240919,44,18
161,161,203,Glenmoor Village,https://www.mhvillage.com/parks/32836, Calhoun ,139,317,172,"3971 Capital Avenue SW #1, Battle Creek, MI, 49015",42.24515,-85.19336,42.2449073,-85.1948686,45,18
162,162,204,Wildflower Crossing,https://www.mhvillage.com/parks/126426, Calhoun ,344,350,173,"1642 Alyssum Court, Albion, MI, 49224",42.26455,-84.77493,42.2646903,-84.7749489,44,17
163,163,205,New Village Estates,https://www.mhvillage.com/parks/15733, Calhoun ,130,275,174,"430 South Byron, Homer, MI, 49245",42.15145,-84.82623,42.1409919,-84.7990704,45,17
164,164,206,Avonwood Mobile Home Park,https://www.mhvillage.com/parks/15522, Calhoun ,55,,176,"953 East Michigan Avenue, Battle Creek, MI, 49017",42.39115,-85.19663,42.3109304,-85.1419347,45,18
165,165,207,Birchwood Place Mobile Home Park,https://www.mhvillage.com/parks/15518, Calhoun ,70,295,177,"3500 Q Drive South, Athens, MI, 49011",42.10945,-85.22203,42.128459,-85.2240013,45,18
166,166,208,Lighthouse On The Lake,https://www.mhvillage.com/parks/38053, Calhoun ,788,,178,"1001 24 Mile Road, Homer, MI, 49245",42.15145,-84.82623,42.0930385,-84.8228278,45,17
167,167,209,The Community of Rolling Hills,https://www.mhvillage.com/parks/15745, Calhoun ,343,349,179,"300 Morgan Road, Battle Creek, MI, 49017",42.39115,-85.19663,42.3534843,-85.215452,44,18
168,168,210,Twin Pines MHC,https://www.mhvillage.com/parks/15517, Calhoun ,73,,180,"2701 Calhoun Road, Albion, MI, 49224",42.2941,-84.78798,42.269343,-84.7182057,44,17
169,169,211,Twin Valley Mobile Home Village,https://www.mhvillage.com/parks/15523, Calhoun ,36,,181,"16555 F Drive South, Marshall, MI, 49068",42.26184,-84.94424,42.2051779,-84.9704859,45,18
170,170,212,Spruce Tree Mobile Home Community,https://www.mhvillage.com/parks/15885, Calhoun ,80,288,182,"14200 - 18 1/2 Mile Road, Marshall, MI, 49068",42.26184,-84.94424,42.2808073,-84.9352311,45,17
171,171,213,Bakers Mobile Home Park,https://www.mhvillage.com/parks/15310, Calhoun ,120,,183,"1030 East Columbia Avenue, Battle Creek, MI, 49015",42.26167,-85.23882,42.2981682,-85.1669532,45,18
172,172,214,Valley Garden Trailer Park,https://www.mhvillage.com/parks/15525, Calhoun ,38,700,184,"897 East Michigan, Battle Creek, MI, 49017",42.39115,-85.19663,42.3118115,-85.1456936,45,18
173,173,215,Evergreen Oak Forest,https://www.mhvillage.com/parks/15516, Calhoun ,103,,185,"20 Powell Street, Battle Creek, MI, 49014",42.30294,-85.10537,42.324456,-85.1307843,45,18
174,174,216,Sunrise Mobile Home Court,https://www.mhvillage.com/parks/431, Calhoun ,33,,186,"15011 West Michigan Avenue, Marshall, MI, 49068",42.26184,-84.94424,42.2704313,-85.0023812,45,18
175,175,217,Harper Commons MHC,https://www.mhvillage.com/parks/126502, Calhoun ,,,187,"993 East Michigan Avenue, Battle Creek, MI, 49014",42.3109,-85.13804,42.3114345,-85.1383412,45,18
176,176,218,Rainbow Estates Mobile Park,https://www.mhvillage.com/parks/15520, Calhoun ,,,188,"875 East Michigan Avenue, Marshall, MI, 49068",42.26184,-84.94424,42.2740911,-84.9438415,45,18
177,177,219,Edwardsburg Estates,https://www.mhvillage.com/parks/15585, Cass ,109,,193,"69425 M-62, Edwardsburg, MI, 49112",41.7906,-86.08514,41.7903717,-86.0837402,36,17
178,178,220,Colonial Acres Mobile Home Park,https://www.mhvillage.com/parks/15676, Cass ,108,370,189,"69205 Garver Lake, Edwardsburg, MI, 49112",41.7965,-86.04734,41.7961063,-86.0472994,36,17
179,179,221,Beech Grove,https://www.mhvillage.com/parks/90393, Cass ,,,190,"51439 Michigan 40, Marcellus, MI, 49067",42.03379,-85.80274,42.0497536,-85.8245053,36,17
180,180,222,Bluegill Lake MHP,https://www.mhvillage.com/parks/15730, Cass ,39,385,191,"400 East South Street, Marcellus, MI, 49067",42.03379,-85.80274,42.0220517,-85.8075259,36,17
181,181,223,C&M Park,https://www.mhvillage.com/parks/15670, Cass ,26,,192,"70710 Elkhart Rd., Edwardsburg, MI, 49112",41.77132,-86.05088,41.7713165,-86.050882,36,17
182,182,224,Rustic Acres Mobile Home Park,https://www.mhvillage.com/parks/15746, Cass ,70,,194,"19250 Stateline Road, Edwardsburg, MI, 49112",41.81851,-86.01239,41.7635973,-85.9400657,36,17
183,183,225,Wildwood Resort,https://www.mhvillage.com/parks/37442, Cass ,163,167,195,"23040 Phillips Road, Edwardsburg, MI, 49112",41.81851,-86.01239,41.79560379999999,-86.0808384,36,17
184,184,226,Simmons Mobile Home Park,https://www.mhvillage.com/parks/15681, Cass ,,,196,"19311 Us Highway 12, Edwardsburg, MI, 49112",41.76878,-85.9411,41.7686926,-85.9410516,36,17
185,185,227,Maple Grove Trailer Court,https://www.mhvillage.com/parks/15678, Cass ,75,,197,"59733 Decatur Road, Cassopolis, MI, 49031",41.90053,-85.99293,41.9292212,-85.9721964,36,17
186,186,228,North Wayne Estates,https://www.mhvillage.com/parks/15917, Cass ,10,,198,"27139 Corwin Street, Dowagiac, MI, 49047",41.98832,-86.10795,42.0631682,-86.0848703,37,17
187,187,229,Rema Mobile Home Park,https://www.mhvillage.com/parks/15679, Cass ,92,,199,"24050 North Shore Drive, Edwardsburg, MI, 49112",41.81851,-86.01239,41.809223,-86.0308877,36,17
188,188,230,Linden Mobile Home Park,https://www.mhvillage.com/parks/15673, Cass ,,,200,"19350 State Line Road, Edwardsburg, MI, 49112",41.81851,-86.01239,41.76017239999999,-85.9418821,36,17
189,189,231,Bay Shore Estates Mobile Home Park,https://www.mhvillage.com/parks/15795, Emmet ,83,400,308,"7463 Old Us Highway 31, Lot 24, Petoskey, MI, 49770",45.34226,-84.9135,45.3966317,-84.8917142,107,37
190,190,232,Charlevoix Estates,https://www.mhvillage.com/parks/15897, Charlevoix ,189,,203,"6685 M 66 North, Charlevoix, MI, 49720",45.27139,-85.2327,45.296538,-85.2589484,107,37
191,191,233,Lake Michigan Heights,https://www.mhvillage.com/parks/547, Charlevoix ,108,,204,"7400 Lakeview Drive, Charlevoix, MI, 49720",45.27139,-85.2327,45.3695163,-85.1274132,107,37
192,192,235,Sun Outdoors Petoskey Bay Harbor,https://www.mhvillage.com/parks/126054, Emmet ,78,,310,"5505 Charlevoix Avenue, Petoskey, MI, 49770",45.35816,-85.05439,45.3581558,-85.0543891,107,37
193,193,236,Petoskey KOA,https://www.mhvillage.com/parks/105759, Emmet ,,,312,"1800 North Us 31, Petoskey, MI, 49770",45.39633,-84.89247,45.3950953,-84.8940051,107,37
194,194,237,Harbor Springs Estates,https://www.mhvillage.com/parks/558, Emmet ,68,,313,"629 East Lake Street, Harbor Springs, MI, 49740",45.544,-84.99149,45.435576,-84.9788608,107,37
195,195,238,Mountain View Estates,https://www.mhvillage.com/parks/15767, Otsego ,42,,955,"2225 Center Street, Boyne Falls, MI, 49713",45.20527,-84.8555,45.1723181,-84.9118096,107,37
196,196,239,Radio City Village,https://www.mhvillage.com/parks/15793, Emmet ,44,,314,"1121 Lears Road, Petoskey, MI, 49770",45.34226,-84.9135,45.34849029999999,-84.9653995,107,37
197,197,240,Chalet Estates,https://www.mhvillage.com/parks/15794, Emmet ,41,,315,"5669 Pickerel Lake Road, Petoskey, MI, 49770",45.34226,-84.9135,45.39357500000001,-84.855528,107,37
198,198,241,Huron Estates,https://www.mhvillage.com/parks/15184, Wayne ,806,629,1170,"22000 Inkster Road, Romulus, MI, 48174",42.20291,-83.34416,42.1448393,-83.31006,29,4
199,199,242,Town & Country Mobile Home Park,https://www.mhvillage.com/parks/15775, Presque Isle ,,,982,"2653 Vanyea Road, Cheboygan, MI, 49721",45.5755,-84.46807,45.6263379,-84.440613,106,37
200,200,243,Indian River Mobile Home Park,https://www.mhvillage.com/parks/15771, Cheboygan ,,,217,"5144 South Straits Highway, Indian River, MI, 49749",45.4228,-84.56745,45.3873493,-84.6291441,106,37
201,201,244,Indian Village Park,https://www.mhvillage.com/parks/15988, Cheboygan ,,,218,"4726 Lanai Drive, Indian River, MI, 49749",45.4228,-84.56745,45.409669,-84.5837352,106,37
202,202,245,Larry's Trailer Court,https://www.mhvillage.com/parks/15773, Presque Isle ,,,986,"10692 North Black River Road, Cheboygan, MI, 49721",45.5755,-84.46807,45.6121857,-84.4466032,106,37
203,203,246,Conway Commons,https://www.mhvillage.com/parks/128334, Emmet ,90,1200,306,"2959 Oden Rd, Alanson, MI, 49706",45.42702,-84.85377,45.4246331,-84.8555472,107,37
204,204,247,Conway Commons,https://www.mhvillage.com/parks/128334, Emmet ,90,1200,309,"8523 Park Way, Alanson, MI, 49706",45.44418,-84.78671,45.427326,-84.8557741,107,37
205,205,248,Alanson Estates Noble Homes,https://www.mhvillage.com/parks/15797, Emmet ,30,,307,"6760 Us 31 North, Alanson, MI, 49706",45.4558,-84.78367,45.4216612,-84.862567,107,37
206,206,249,El Rancho Alanson RV Resort,https://www.mhvillage.com/parks/126084, Emmet ,137,,311,"6712 San Juan, Alanson, MI, 49706",45.44001,-84.77692,45.4399886,-84.7769209,107,37
207,207,250,Shady Grove Village,https://www.mhvillage.com/parks/15855, Presque Isle ,,,979,"4128 Michigan, Onaway, MI, 49765",45.34678,-84.25729,45.3517697,-84.2341279,106,36
208,208,251,Lake Superior Estates,https://www.mhvillage.com/parks/15780, Luce ,225,,640,"102 East 25th Avenue, Sault Sainte Marie, MI, 49783",46.4698,-84.34852,46.4690779,-84.3533506,107,37
209,209,252,Blair Hastings Park Lake Superior State,https://www.mhvillage.com/parks/15779, Mackinac ,,,650,"1000 College Drive, Sault Sainte Marie, MI, 49783",46.37568,-84.30145,46.4944706,-84.3597571,107,37
210,210,253,L & M Trailer Court,https://www.mhvillage.com/parks/550, Luce ,133,,644,"1804 West 18th Street, Sault Sainte Marie, MI, 49783",46.48215,-84.40096,46.4831325,-84.4042441,107,37
211,211,254,Riverside Mobile Home Village,https://www.mhvillage.com/parks/15777, Mackinac ,60,,651,"2210 Riverside Drive, Sault Sainte Marie, MI, 49783",46.37568,-84.30145,46.4689892,-84.2996831,107,37
212,212,255,Fornicola Trailer Park,https://www.mhvillage.com/parks/15778, Mackinac ,,,652,"2501 Ashmun Street, Sault Sainte Marie, MI, 49783",46.37568,-84.30145,46.4774159,-84.3540046,107,37
213,213,257,Great Northern Mobile Home Park,https://www.mhvillage.com/parks/15824, Luce ,,,639,"M-28 Highway, Newberry, MI, 49868",46.45669,-85.41102,46.4925837,-87.1467716,109,38
214,214,258,Meadows of Farwell,https://www.mhvillage.com/parks/15603, Clare ,48,340,232,"551 Grace Street, Farwell, MI, 48622",43.8212,-84.87874,43.8388383,-84.8627705,100,34
215,215,259,Pleasant Valley Mobile Home Park,https://www.mhvillage.com/parks/15608, Clare ,,362,233,"600 West 5th Street, Clare, MI, 48617",43.82236,-84.78176,43.8224327,-84.7817081,100,34
216,216,260,Cedar Shores,https://www.mhvillage.com/parks/16059, Missaukee ,,,753,"5916 Cedar Shores, Harrison, MI, 48625",44.03111,-84.84619,44.02784330000001,-84.7317185,100,34
217,217,261,Hidden Hill Family Campground,https://www.mhvillage.com/parks/15727, Missaukee ,55,,754,"300 North Clare, Harrison, MI, 48625",44.03111,-84.84619,43.991733,-84.778833,100,34
218,218,262,Harrison Estates,https://www.mhvillage.com/parks/15606, Missaukee ,50,,755,"2600 Mostetler Road, Harrison, MI, 48625",44.03111,-84.84619,44.009485,-84.795737,100,34
219,219,263,Beech Tree Estates,https://www.mhvillage.com/parks/16044, Clare ,,,237,"7413 North Nottawa Road, Farwell, MI, 48622",43.8212,-84.87874,43.7473974,-84.8690409,92,34
220,220,264,Loomis Resort,https://www.mhvillage.com/parks/15605, Osceola ,,,929,"10585 Rock Road, Lake, MI, 48632",43.83909,-85.015,43.8354141,-85.0566451,100,34
221,221,265,Luke's Trailer Park,https://www.mhvillage.com/parks/15607, Clare ,,,239,"705 S Rainbow Dr, Clare, MI, 48617",43.85808,-84.72783,43.8189792,-84.7561471,100,34
222,222,266,Parkers Trailer Park,https://www.mhvillage.com/parks/15604, Missaukee ,,,761,"3100 Long Lake Road, Harrison, MI, 48625",44.03111,-84.84619,44.1033029,-84.7864012,100,34
223,223,267,Ruby's Mobile Home Park,https://www.mhvillage.com/parks/15609, Clare ,,,241,"10600 South Clare Avenue, Clare, MI, 48617",43.85808,-84.72783,43.8332233,-84.76845,100,34
224,224,268,Withii Trailer Park,https://www.mhvillage.com/parks/15610, Missaukee ,,,763,"1820 Hampton Road, Harrison, MI, 48625",44.03111,-84.84619,44.0348891,-84.8135826,100,34
225,225,269,King Arthur's Court,https://www.mhvillage.com/parks/15064, Clinton ,425,599,243,"2201 East State Road, Lansing, MI, 48906",42.78265,-84.57672,42.78550000000001,-84.5188563,77,28
226,226,270,Capital Crossings,https://www.mhvillage.com/parks/34271, Clinton ,275,,244,"13531 Declaration Court, Eagle, MI, 48822",42.83725,-84.75913,42.8187951,-84.7916778,77,28
227,227,271,Cadgewith Farms,https://www.mhvillage.com/parks/15721, Clinton ,228,480,245,"2300 East State Road, Lansing, MI, 48906",42.78265,-84.57672,42.7823852,-84.5170668,77,28
228,228,272,Valley Estates,https://www.mhvillage.com/parks/15101, Ingham ,148,310,435,"16751 Turner Road, Lansing, MI, 48906",42.77352,-84.551,42.77347470000001,-84.5510225,77,28
229,229,273,The Meadows of St Johns,https://www.mhvillage.com/parks/15106, Clinton ,216,,246,"2265 W Parks Rd - Lot #1, Saint Johns, MI, 48879",43.00047,-84.58266,42.9691679,-84.5671036,75,28
230,230,274,Quiet Cove,https://www.mhvillage.com/parks/15408, Shiawassee ,43,,1076,"12675 Colby Lake Road, Laingsburg, MI, 48848",42.87317,-84.38924,42.8093989,-84.3212,75,28
231,231,275,Kristana Mobile Home Park,https://www.mhvillage.com/parks/15213, Clinton ,165,396,248,"1110 East Coleman Road, Lansing, MI, 48906",42.78265,-84.57672,42.7723291,-84.4814436,75,28
232,232,276,Maple Leaf Community,https://www.mhvillage.com/parks/32680, Shiawassee ,76,300,1082,"8701 East M-21, Ovid, MI, 48866",42.99048,-84.35524,42.999768,-83.9927967,71,28
233,233,277,Saint Johns Estates,https://www.mhvillage.com/parks/15105, Clinton ,112,,251,"609 North Morton Street, Saint Johns, MI, 48879",43.00047,-84.58266,43.0085941,-84.5670223,75,28
234,234,278,Moon Lake Mobile Home Park,https://www.mhvillage.com/parks/15325, Shiawassee ,92,,1089,"12700 South Colby Lake Road, Laingsburg, MI, 48848",42.87317,-84.38924,42.8095881,-84.3265483,75,28
235,235,279,Maple Valley Subdivision,https://www.mhvillage.com/parks/605, Shiawassee ,35,,1090,"Meridian Road - Po Box 135, Ovid, MI, 48866",42.99048,-84.35524,42.9340676,-84.3655009,75,28
236,236,280,Westphalia Mobile Home Court,https://www.mhvillage.com/parks/15216, Clinton ,8,,254,"13606 Jason Rd, Westphalia, MI, 48894",42.91526,-84.79072,42.9150395,-84.7900093,77,28
237,237,281,Park Lake Mobile Home Court,https://www.mhvillage.com/parks/15214, Clinton ,48,,255,"6335 Park Lake Road, Bath, MI, 48808",42.82693,-84.44378,42.7621864,-84.4496179,75,28
238,238,282,Crosswinds Mobile Home Park,https://www.mhvillage.com/parks/15212, Clinton ,90,,256,"14073 South Us Highway 27, Dewitt, MI, 48820",42.81211,-84.54134,42.812123,-84.54134,77,28
239,239,284,Hartwick Pines Mobile Home Estates,https://www.mhvillage.com/parks/15925, Oscoda ,52,,933,"4869 Brighton Circle, Grayling, MI, 49738",44.71357,-84.65051,44.709562,-84.7038202,105,36
240,240,285,Grayling Mobile Home Estates,https://www.mhvillage.com/parks/15906, Oscoda ,163,,937,"North Down River Road, Grayling, MI, 49738",44.71357,-84.65051,44.6709242,-84.7068193,105,36
241,241,286,Timberly Village,https://www.mhvillage.com/parks/15783, Oscoda ,,,944,"243 Woodlawn Boulevard, Grayling, MI, 49738",44.71357,-84.65051,44.6827039,-84.7159028,105,36
242,242,287,Aspen Village,https://www.mhvillage.com/parks/595, Otsego ,204,303,947,"204 Aspen Commons Drive, Gaylord, MI, 49735",44.99125,-84.6518,45.011646,-84.671946,105,36
243,243,288,Nottingham Forest,https://www.mhvillage.com/parks/15851, Otsego ,74,480,948,"1665 West M-32, Gaylord, MI, 49735",44.99125,-84.6518,45.0272075,-84.707575,105,36
244,244,289,Sunset Estates of Gaylord LLC,https://www.mhvillage.com/parks/15853, Otsego ,20,550,949,"7346 Old 27 Hwy South, Vanderbilt, MI, 49795",44.9141,-84.69544,45.1305231,-84.6640498,105,36
245,245,290,Higgins Lake East Campground and Mobile Home Park,https://www.mhvillage.com/parks/15860, Roscommon ,,,992,"2380 West Burdell Road, Roscommon, MI, 48653",44.48037,-84.61296,44.47910359999999,-84.6636305,105,36
246,246,291,Higgins Lake Hide-a-way Mobile Home Park,https://www.mhvillage.com/parks/15857, Roscommon ,,,993,"6059 West Higgins Lake Drive, Higgins Lake, MI, 48627",44.46121,-84.7481,44.4610527,-84.7473713,105,36
247,247,292,Log Haven Mobile Home Park,https://www.mhvillage.com/parks/15852, Otsego ,,,950,"273 Randolph Street, Gaylord, MI, 49735",44.99125,-84.6518,44.9918521,-84.672449,105,36
248,248,294,Wagon Wheel Estates,https://www.mhvillage.com/parks/15863, Roscommon ,,,999,"2720 West Higgins Lake Road, Roscommon, MI, 48653",44.48037,-84.61296,44.44786,-84.708308,105,36
249,249,295,Woodland Estates,https://www.mhvillage.com/parks/345, Kalamazoo ,348,515,531,"4797 South 4th Street, Kalamazoo, MI, 49009",42.24645,-85.72582,42.24644809999999,-85.7258151,40,19
250,250,296,Fair View Estates,https://www.mhvillage.com/parks/15785, Delta ,,,274,"1401 North 23rd Street, Escanaba, MI, 49829",45.76411,-87.07968,45.7641432,-87.079836,108,38
251,251,297,White Birch Village,https://www.mhvillage.com/parks/15789, Iron ,249,250,474,"W8079 S Us Hwy 2/141, Iron Mountain, MI, 49801",45.80907,-88.03536,45.8098189,-88.028923,110,38
252,252,298,Park Ridge,https://www.mhvillage.com/parks/15791, Iron ,94,,475,"1300 Michigan Avenue, Office, Iron Mountain, MI, 49801",45.80987,-88.04959,45.8111955,-88.0488114,110,38
253,253,299,Rivers Bend Mobile Park,https://www.mhvillage.com/parks/15792, Iron ,51,,476,"N3905 Pine Mountain Rd, Iron Mountain, MI, 49801",45.94478,-87.96643,45.8370608,-88.0932459,110,38
256,256,302,Kensington Meadows,https://www.mhvillage.com/parks/15873, Ingham ,290,,422,"4245 West Jolly Road, Lansing, MI, 48911",42.68314,-84.60191,42.6815381,-84.608764,76,21
257,257,303,Windsor Estates,https://www.mhvillage.com/parks/16025, Eaton ,470,390,287,"6661 Canal Road, Dimondale, MI, 48821",42.63992,-84.65103,42.6636922,-84.6621736,76,21
258,258,304,Eaton Pine Village,https://www.mhvillage.com/parks/15956, Eaton ,147,396,285,"458 Eaton Pines Blvd, Eaton Rapids, MI, 48827",42.50937,-84.669,42.5019107,-84.6635518,76,21
259,259,305,Butternut Creek,https://www.mhvillage.com/parks/27918, Eaton ,30,370,286,"801 Packard Highway, Charlotte, MI, 48813",42.56686,-84.819,42.583524,-84.8191308,76,21
260,260,306,Grand Ledge Ravines,https://www.mhvillage.com/parks/15217, Eaton ,218,363,288,"855 West Jefferson Street, Grand Ledge, MI, 48837",42.74847,-84.76911,42.752733,-84.7600971,77,21
261,261,307,Park Terrace MHC,https://www.mhvillage.com/parks/15226, Eaton ,158,,289,"3435 West Saint Joseph Street, Lansing, MI, 48917",42.71887,-84.63234,42.724506,-84.5982484,77,21
262,262,308,Century Park,https://www.mhvillage.com/parks/15222, Eaton ,230,435,290,"215 North Canal Road, Lansing, MI, 48917",42.71887,-84.63234,42.7341578,-84.6629823,76,21
263,263,309,Maple Knoll Mobile Home Community,https://www.mhvillage.com/parks/15241, Eaton ,49,385,291,"1716 E Lansing Road, Charlotte, MI, 48813",42.58416,-84.80285,42.5845758,-84.8040851,76,21
264,264,310,Mill Pond an FR Community,https://www.mhvillage.com/parks/15076, Ingham ,356,435,431,"1500 Old Mill Lane, Lansing, MI, 48911",42.68109,-84.55825,42.6567049,-84.5313932,74,21
265,265,311,Stonegate,https://www.mhvillage.com/parks/15109, Ingham ,278,,432,"2700 Eaton Rapids, Lansing, MI, 48911",42.65876,-84.59355,42.6566037,-84.5954249,74,21
266,266,312,Country Village,https://www.mhvillage.com/parks/15240, Eaton ,100,,294,"7781 West Grand River Highway, Grand Ledge, MI, 48837",42.74847,-84.76911,42.7827036,-84.6773495,77,28
267,267,313,Grand Oaks Village,https://www.mhvillage.com/parks/15061, Eaton ,168,,295,"817 North Clinton Street, Grand Ledge, MI, 48837",42.74847,-84.76911,42.7610471,-84.7400598,77,21
268,268,314,Hi-Way Mobile Haven,https://www.mhvillage.com/parks/15219, Eaton ,67,,296,"2600 Lansing Road, Charlotte, MI, 48813",42.56686,-84.819,42.6023972,-84.7720172,76,21
269,269,315,Independence Commons,https://www.mhvillage.com/parks/15911, Eaton ,340,,297,"1776 Constitution Circle, Potterville, MI, 48876",42.6437,-84.73949,42.6275868,-84.7511019,76,21
270,270,316,Meadows Mobile Home Park,https://www.mhvillage.com/parks/15660, Gratiot ,93,,389,"411 South Grover Street, Alma, MI, 48801",43.37908,-84.65708,43.3695771,-84.6412826,92,34
271,271,317,Valley Springs Mobile Home Park,https://www.mhvillage.com/parks/15220, Eaton ,81,350,299,"4723 Hartel Road, Potterville, MI, 48876",42.6437,-84.73949,42.6359058,-84.73912,76,21
272,272,318,Belle Vista Mobile Home Park,https://www.mhvillage.com/parks/21576, Eaton ,206,,300,"509 Belle Vista Drive, Bellevue, MI, 49021",42.42874,-85.09764,42.4484297,-85.0123082,43,21
273,273,319,Bellevue Mobile Home Park,https://www.mhvillage.com/parks/15519, Eaton ,76,,301,"23951 15 Mile Road, Bellevue, MI, 49021",42.42874,-85.09764,42.4195007,-85.0067881,44,18
274,274,320,Hickory Haven Mobile Home Park,https://www.mhvillage.com/parks/15218, Eaton ,27,,302,"420 Haven Street, Eaton Rapids, MI, 48827",42.50937,-84.669,42.5014931,-84.6523783,76,21
275,275,321,Lawrence Manor Mobile Home Park,https://www.mhvillage.com/parks/280, Eaton ,30,,304,"629 West Lawrence Avenue, Charlotte, MI, 48813",42.56686,-84.819,42.562963,-84.845223,76,21
276,276,322,Riverwood,https://www.mhvillage.com/parks/106664, Eaton ,,,305,"501 South Jefferson St, Bellevue, MI, 49021",42.44934,-85.01063,42.449333,-85.010723,43,21
277,277,323,Pineview Estates,https://www.mhvillage.com/parks/15742, Genesee ,1011,400,316,"6152 N. Genesee Rd., Flint, MI, 48506",43.06496,-83.62216,43.0944998,-83.6095653,67,26
278,278,324,Broadview Estates,https://www.mhvillage.com/parks/289, Genesee ,497,,317,"4250 North State Road, Davison, MI, 48423",43.04208,-83.52223,43.0697702,-83.5136841,67,26
279,279,325,Cider Mill Crossings,https://www.mhvillage.com/parks/34419, Genesee ,327,,318,"9900 Townsquare Boulevard, Fenton, MI, 48430",42.77042,-83.74655,42.6945303,-83.7628064,50,22
280,280,326,Maple Run,https://www.mhvillage.com/parks/15991, Genesee ,145,,320,"2000 Maple Run Boulevard, Clio, MI, 48420",43.16502,-83.71659,43.1650177,-83.7165927,97,26
281,281,327,Fisherman's Cove,https://www.mhvillage.com/parks/15532, Genesee ,162,,321,"4441 Jena Lane, Flint, MI, 48507",42.95973,-83.7225,42.96420519999999,-83.7227041,70,27
282,282,328,Pine Ridge,https://www.mhvillage.com/parks/15741, Genesee ,195,,323,"9348 Silver Lake Road, Linden, MI, 48451",42.79415,-83.82942,42.7982441,-83.8573832,71,22
283,283,329,Tyrone Woods Manufactured Home Community,https://www.mhvillage.com/parks/67222, Genesee ,403,450,325,"8378 Hogan Rd, Fenton, MI, 48430",42.77042,-83.74655,42.750251,-83.7970806,72,22
284,284,330,Creek Wood,https://www.mhvillage.com/parks/15970, Genesee ,336,,326,"3440 Creekside Boulevard, Burton, MI, 48519",42.97788,-83.62682,42.97928880000001,-83.6255313,68,27
285,285,331,Green Briar Community,https://www.mhvillage.com/parks/15968, Genesee ,345,350,342,"4070 Green Briar Boulevard, Burton, MI, 48529",42.97458,-83.66285,42.9685711,-83.683374,70,27
286,286,332,Timber Heights,https://www.mhvillage.com/parks/15924, Genesee ,221,,328,"1168 N. Oak Rd., Davison, MI, 48423",43.0264,-83.49335,43.0264519,-83.493384,68,26
287,287,333,Hawaiian Gardens/Holly Village,https://www.mhvillage.com/parks/15549, Oakland ,233,,895,"4261 Grange Hall Road Site 1B, Holly, MI, 48442",42.8111,-83.6147,42.8084909,-83.6192423,72,22
288,288,335,Swartz Creek Estates,https://www.mhvillage.com/parks/15998, Genesee ,176,549,333,"73 Ashley Circle, Swartz Creek, MI, 48473",42.96219,-83.84656,42.96143319999999,-83.8477221,69,27
289,289,337,Grand Blanc Crossing,https://www.mhvillage.com/parks/15910, Genesee ,478,,335,"8225 Embury Road, Grand Blanc, MI, 48439",42.92103,-83.64743,42.9105467,-83.6421583,68,27
290,290,338,Lake Fenton Estates,https://www.mhvillage.com/parks/37972, Genesee ,135,320,337,"11429 Harbor Cove Drive, Fenton, MI, 48430",42.85895,-83.71818,42.859773,-83.7178831,72,22
291,291,339,South Valley Estates,https://www.mhvillage.com/parks/437, Genesee ,116,305,339,"37 Bellwood Drive, Swartz Creek, MI, 48473",42.96076,-83.81032,42.9607647,-83.8103188,69,27
292,292,340,Highlands Estates,https://www.mhvillage.com/parks/15370, Genesee ,635,437,340,"2197 East Mount Morris Road, Mount Morris, MI, 48458",43.12576,-83.68609,43.1237814,-83.6674851,67,26
293,293,341,Flushing Estates,https://www.mhvillage.com/parks/313, Genesee ,279,,343,"7416 Gillette Road, Flushing, MI, 48433",43.08096,-83.86068,43.1142419,-83.8579674,69,27
294,294,342,Linden Place,https://www.mhvillage.com/parks/15333, Genesee ,162,,344,"4192 South Linden Road, Flint, MI, 48507",42.96585,-83.77672,42.9672813,-83.7723105,69,27
295,295,343,Swartz Creek Meadows,https://www.mhvillage.com/parks/359, Genesee ,584,412,345,"4101 Sheridan Road, Lennon, MI, 48449",42.99756,-83.94851,42.9672634,-83.928037,69,27
296,296,360,Marshall's Crossing,https://www.mhvillage.com/parks/16009, Saginaw ,200,375,1009,"12050 Trident Boulevard, Montrose, MI, 48457",43.21973,-83.93292,43.1787397,-83.8413042,97,26
297,297,361,Meadowbrook Manor Estates,https://www.mhvillage.com/parks/300, Genesee ,401,370,341,"7280 West Mt. Morris Road, Flushing, MI, 48433",43.08096,-83.86068,43.1226619,-83.8254253,69,27
298,298,377,Camelot Villa,https://www.mhvillage.com/parks/15094, Macomb ,712,,661,"17111 Hall Road, Macomb, MI, 48044",42.62826,-82.95044,42.6286895,-82.9503433,60,11
299,299,414,Cloverland Mobile Home Park,https://www.mhvillage.com/parks/15801, Ontonagon ,,,915,"601 Garvey Street, Ironwood, MI, 49938",46.48946,-90.204,46.4645383,-90.161354,110,38
300,300,415,Ironwood Estates Mobile Home Community,https://www.mhvillage.com/parks/111034, Ontonagon ,,,918,"N10356 Lake Rd, Ironwood, MI, 49938",46.47251,-90.15612,46.4725148,-90.1561177,110,38
301,301,416,Kristella's Mobile Home Park,https://www.mhvillage.com/parks/15800, Ontonagon ,,,919,"402 Sunday Lake, Wakefield, MI, 49968",46.5147,-89.89452,46.4745032,-89.9408361,110,38
306,306,422,Evergreen Estates,https://www.mhvillage.com/parks/15639, Tuscola ,92,319,1094,"2115 East Evergreen Dr., Caro, MI, 48723",43.49228,-83.38507,43.46252519999999,-83.4330568,97,25
311,311,427,Pipers Mobile Village,https://www.mhvillage.com/parks/573, Ontonagon ,,,911,"Trailer Court Road, White Pine, MI, 49971",46.72666,-89.54651,46.7639596,-89.5763414,110,38
312,312,428,King's Court,https://www.mhvillage.com/parks/521, Leelanau ,639,,586,"1585 Ray Blvd., Traverse City, MI, 49686",44.72831,-85.60562,44.7281957,-85.6089644,103,37
313,313,429,Cherrywood Village Farms,https://www.mhvillage.com/parks/15884, Wexford ,193,210,1187,"2451 M-113 East, Kingsley, MI, 49649",44.56662,-85.53485,44.5848944,-85.5274422,104,37
314,314,430,Timber Ridge,https://www.mhvillage.com/parks/127472, Leelanau ,31,358,595,"4050 E Hammond Rd, Traverse City, MI, 49686",44.71424,-85.49447,44.7142348,-85.4944874,103,37
315,315,431,Evergreen Village,https://www.mhvillage.com/parks/15580, Gratiot ,183,,384,"21 Evergreen Drive, Saint Louis, MI, 48880",43.39773,-84.62352,43.397003,-84.6260481,92,34
316,316,432,Alma Mobile Home Park,https://www.mhvillage.com/parks/15659, Gratiot ,46,,382,"315 Linwood Avenue, Alma, MI, 48801",43.37808,-84.63972,43.378488,-84.6386836,92,34
317,317,433,Breckenridge Mobile Home Park,https://www.mhvillage.com/parks/15658, Gratiot ,46,,383,"452 Elm Street, Breckenridge, MI, 48615",43.43056,-84.46877,43.4149744,-84.4867871,93,34
318,318,434,Nesen's Countryside Park,https://www.mhvillage.com/parks/15948, Gratiot ,77,300,385,"600 Cheesman Road, Saint Louis, MI, 48880",43.45166,-84.56312,43.4024899,-84.6190847,92,34
319,319,435,Scotsdale Estates,https://www.mhvillage.com/parks/519, Gratiot ,189,427,386,"3382 Alma Drive, Alma, MI, 48801",43.37908,-84.65708,43.3977026,-84.6743787,92,34
320,320,436,Timber Country MHP,https://www.mhvillage.com/parks/15662, Gratiot ,32,,387,"10401 West Monroe Road, Elwell, MI, 48832",43.40705,-84.81317,43.4060995,-84.8151204,92,34
321,321,437,Meadow Lane Estates,https://www.mhvillage.com/parks/15661, Gratiot ,128,,388,"401 South Saint Johns Street, Ithaca, MI, 48847",43.27706,-84.56826,43.2871214,-84.5996302,92,34
322,322,438,Woodcrest Mobile Home Park,https://www.mhvillage.com/parks/15663, Gratiot ,34,,390,"953 East Monroe Road, Saint Louis, MI, 48880",43.45166,-84.56312,43.4079475,-84.5896977,92,34
323,323,439,Riley's Mobile Home Court,https://www.mhvillage.com/parks/15665, Hillsdale ,50,325,391,"3700 North Hillsdale Road, Hillsdale, MI, 49242",41.86512,-84.60385,41.9526648,-84.6316761,35,16
324,324,440,Hillsdale,https://www.mhvillage.com/parks/475, Hillsdale ,170,,393,"2856 Carleton Road, Hillsdale, MI, 49242",41.93985,-84.64735,41.9398517,-84.6473606,35,16
325,325,441,Hillside Acres MHC,https://www.mhvillage.com/parks/494, Hillsdale ,42,250,394,"5200 Bankers Road, Reading, MI, 49274",41.84686,-84.7284,41.8839546,-84.7129707,35,17
326,326,442,Somerset Centre Estates,https://www.mhvillage.com/parks/496, Hillsdale ,310,365,395,"12851 East Chicago Road, Somerset Center, MI, 49282",42.0406,-84.39641,42.0488126,-84.4044137,35,16
327,327,443,Southern Belle Mobile Community,https://www.mhvillage.com/parks/37607, Hillsdale ,14,185,396,"2722 West Card Road, Hillsdale, MI, 49242",41.86512,-84.60385,41.8560469,-84.664692,35,16
328,328,444,West Village Mobile Home Park,https://www.mhvillage.com/parks/37796, Hillsdale ,16,,397,"8800 Market Street, Pittsford, MI, 49271",41.85495,-84.45733,41.8626553,-84.4789469,35,16
329,329,445,Saint Joe Mobile Park,https://www.mhvillage.com/parks/15664, Hillsdale ,12,,398,"310 West Saint Joe Street, Litchfield, MI, 49252",42.02898,-84.75346,42.0438579,-84.7645081,35,17
330,330,446,Ramblewood Mobile Home Park,https://www.mhvillage.com/parks/15666, Hillsdale ,30,,399,"4091 State Road, Hillsdale, MI, 49242",41.86512,-84.60385,41.9265173,-84.5712264,35,16
331,331,447,Bayside Estates,https://www.mhvillage.com/parks/561, Huron ,74,266,407,"2420 Pinetree Drive, Sebewaing, MI, 48759",43.73981,-83.39244,43.757481,-83.428863,98,25
332,332,448,Clarkston Riverview Mobile Court,https://www.mhvillage.com/parks/566, Huron ,36,250,408,"4599 Pigeon Road, Elkton, MI, 48731",43.83306,-83.16145,43.8185615,-83.1611361,98,25
333,333,449,Huron Estates Mobile Home Village,https://www.mhvillage.com/parks/15811, Huron ,50,315,409,"163 Nelson Street, Harbor Beach, MI, 48441",43.80169,-82.73358,43.8438764,-82.6633301,98,25
334,334,450,Misty Meadows,https://www.mhvillage.com/parks/559, Huron ,27,,410,"1723 South Vandyke, Bad Axe, MI, 48413",43.7882,-83.06817,43.7882033,-83.0681701,98,25
335,335,451,Port Austin Estates,https://www.mhvillage.com/parks/15814, Huron ,36,,411,"M 25 & Larned Road Box 250, Port Austin, MI, 48467",44.00348,-82.96883,44.0441776,-83.0098931,98,25
336,336,452,Summerwood Estates,https://www.mhvillage.com/parks/564, Huron ,80,,412,"162 Charlotte Street, Bad Axe, MI, 48413",43.78782,-82.99111,43.81167620000001,-83.0037877,98,25
337,337,453,Clarkson Pines Mobile Home Village,https://www.mhvillage.com/parks/15810, Huron ,,,413,"865 South Vandyke Road, Bad Axe, MI, 48413",43.80155,-83.01907,43.7999533,-83.0202553,98,25
338,338,454,Mel-O-Day Acres Mobile Home Park,https://www.mhvillage.com/parks/15807, Huron ,40,,414,"3193 Port Austin Road, Port Austin, MI, 48467",44.00348,-82.96883,43.9998259,-83.1190101,98,25
339,339,455,Whalen's Grindstone Park,https://www.mhvillage.com/parks/16049, Huron ,34,,415,"3373 Pointe Aux Barques, Port Austin, MI, 48467",44.00348,-82.96883,44.0546186,-82.8946155,98,25
340,340,456,Sand Point Corners,https://www.mhvillage.com/parks/15812, Huron ,,,416,"7910 Port Austin Road, Pigeon, MI, 48755",43.83991,-83.30276,43.9175104,-83.3143546,98,25
341,341,457,Caseville County Park,https://www.mhvillage.com/parks/16001, Huron ,,,417,"6400 Main Street, Caseville, MI, 48725",43.94751,-83.2214,43.9471392,-83.2706803,98,25
342,342,458,Caseville Resort and Marina,https://www.mhvillage.com/parks/106402, Huron ,,,418,"6450 Riverside Dr, Caseville, MI, 48725",43.9441,-83.26923,43.9441293,-83.2692109,98,25
343,343,459,Charlie's Place,https://www.mhvillage.com/parks/15809, Huron ,,,419,"11860 Kilmanagh Road, Sebewaing, MI, 48759",43.73981,-83.39244,43.7542692,-83.4455156,98,25
344,344,460,Farmers Mobile Park,https://www.mhvillage.com/parks/15808, Huron ,,,420,"6351 Main Street, Caseville, MI, 48725",43.94751,-83.2214,43.9489916,-83.2690341,98,25
345,345,461,Oak Grove,https://www.mhvillage.com/parks/54393, Huron ,,,421,"3341 Port Austin Road, Port Austin, MI, 48467",44.00348,-82.96883,43.996311,-83.125349,98,25
346,346,462,Hamlin,https://www.mhvillage.com/parks/15107, Ingham ,209,,423,"5325 Van Orden Road, Webberville, MI, 48892",42.63604,-84.15417,42.6365077,-84.1550659,73,22
347,347,463,Mason Manor,https://www.mhvillage.com/parks/275, Ingham ,269,355,427,"2179 Hull Road, Mason, MI, 48854",42.58138,-84.46032,42.5196553,-84.4423638,73,21
348,348,464,Oak Island Village,https://www.mhvillage.com/parks/15714, Ingham ,250,420,424,"16430  Park Lake Road, East Lansing, MI, 48823",42.76324,-84.43861,42.7786632,-84.4390698,75,28
349,349,465,Leslie Estates,https://www.mhvillage.com/parks/15231, Ingham ,78,,426,"714 Mill Street, Leslie, MI, 49251",42.46997,-84.41181,42.4478056,-84.4230315,73,21
350,350,466,Sycamore Village,https://www.mhvillage.com/parks/233, Ingham ,396,428,425,"900 West Columbia Road, Mason, MI, 48854",42.58138,-84.46032,42.5824152,-84.3802253,73,21
351,351,467,Dutch Hills,https://www.mhvillage.com/parks/277, Ingham ,278,428,428,"16400 Upton Road, East Lansing, MI, 48823",42.76324,-84.43861,42.7787777,-84.4020309,75,28
352,352,468,Village Square ,https://www.mhvillage.com/parks/15229, Ingham ,100,,429,"875 West Grand River Avenue, Williamston, MI, 48895",42.68861,-84.26846,42.6856257,-84.295057,73,28
353,353,469,Delhi Manor,https://www.mhvillage.com/parks/15050, Ingham ,286,382,430,"4075 East Holt Road, Holt, MI, 48842",42.64033,-84.50636,42.6384325,-84.5072822,74,21
354,354,470,Valley Brook Mobile Home Estates,https://www.mhvillage.com/parks/15228, Ingham ,51,,433,"1560 North Eifert Road, Holt, MI, 48842",42.63978,-84.5433,42.5934328,-84.5427503,73,21
355,355,471,Falcon Pointe,https://www.mhvillage.com/parks/32341, Ingham ,244,,434,"555 Quarterhorse Road, East Lansing, MI, 48823",42.76324,-84.43861,42.7799062,-84.4966541,75,28
356,356,472,"Webbervilla, LLC",https://www.mhvillage.com/parks/15232, Ingham ,174,,436,"400 West Grand River Avenue, Webberville, MI, 48892",42.64479,-84.17841,42.6688679,-84.1812917,73,22
357,357,473,Williamston Lakes,https://www.mhvillage.com/parks/15913, Ingham ,71,425,437,"2300 East Grand River, Williamston, MI, 48895",42.68861,-84.26846,42.6847708,-84.2708381,73,28
358,358,474,Windmill Park,https://www.mhvillage.com/parks/15110, Ingham ,484,390,438,"1433 Eifert Road, Holt, MI, 48842",42.63978,-84.5433,42.624,-84.54781,74,21
359,359,475,Willow Village Mobile Home Park,https://www.mhvillage.com/parks/15533, Ingham ,45,,439,"2445 East Grand River, Williamston, MI, 48895",42.68861,-84.26846,42.6866265,-84.2639871,73,28
360,360,476,Knolls Of Hamlin,https://www.mhvillage.com/parks/37739, Ingham ,23,,440,"5247 Van Orden, Webberville, MI, 48892",42.64479,-84.17841,42.638044,-84.157656,73,22
361,361,477,Sunset Mobile Home Park,https://www.mhvillage.com/parks/15648, Sanilac ,105,295,1071,"854 West Sanilac Road, Sandusky, MI, 48471",43.43036,-82.86887,43.4220524,-82.7964196,98,25
362,362,478,Country Manor Mobile Home Park,https://www.mhvillage.com/parks/15224, Ingham ,39,,442,"4400 Edgar Road, Leslie, MI, 49251",42.46997,-84.41181,42.453976,-84.504204,73,21
363,363,479,Winslow's Mobile Home Terrace,https://www.mhvillage.com/parks/15230, Ingham ,72,,443,"734 West Grand River Avenue, Okemos, MI, 48864",42.70499,-84.40207,42.7128396,-84.3759887,75,28
364,364,480,Sherwood Forest Manufactured Home Community,https://www.mhvillage.com/parks/15874, Ionia ,240,,444,"1133 Yeomans Street, Ionia, MI, 48846",42.98037,-85.08586,42.9836282,-85.0831903,78,33
365,365,481,Sunset Ridge,https://www.mhvillage.com/parks/32569, Ionia ,190,409,445,"7204 East Grand River Avenue, Portland, MI, 48875",42.85464,-84.9269,42.8697893,-84.9366388,78,33
366,366,482,Canterbury Estates,https://www.mhvillage.com/parks/602, Ionia ,290,391,448,"360 East Tuttle, Ionia, MI, 48846",42.95113,-85.06619,42.9499199,-85.0682099,78,33
367,367,483,Pine Haven Estates,https://www.mhvillage.com/parks/15904, Ionia ,50,800,446,"10400 Pewamo Road, Pewamo, MI, 48873",42.99322,-84.83829,43.0019505,-84.8683944,93,33
368,368,484,Wellington Estates,https://www.mhvillage.com/parks/15751, Wayne ,410,,1177,"16031 Beech Daly Road, Taylor, MI, 48180",42.22557,-83.26855,42.1876839,-83.2867537,28,4
369,369,485,Cedar Hill Trailer Park,https://www.mhvillage.com/parks/15691, Ionia ,13,250,449,"11211 East Nickleplate Road, Pewamo, MI, 48873",42.99322,-84.83829,43.03352599999999,-84.851723,93,33
370,370,486,Evergreen Mobile Home Community,https://www.mhvillage.com/parks/461, Ionia ,110,335,450,"2096 North State Road, Ionia, MI, 48846",42.98166,-85.0551,43.0167015,-85.0706579,78,33
371,371,487,Parkview Estates,https://www.mhvillage.com/parks/15682, Ionia ,75,365,451,"9203 Nelson Road, Portland, MI, 48875",42.85464,-84.9269,42.8539623,-84.9348472,78,33
372,372,488,Woodcreek Mobile Estates,https://www.mhvillage.com/parks/15684, Ionia ,30,,452,"6600 North State Road, Orleans, MI, 48865",43.07627,-85.10939,43.08467450000001,-85.0745383,78,33
373,373,489,Glenview Mobile Home Park,https://www.mhvillage.com/parks/15690, Ionia ,13,245,453,"4090 Jackson Road, Saranac, MI, 48881",42.93399,-85.20615,42.9285111,-85.194074,78,18
374,374,490,Grieves Trailer Park,https://www.mhvillage.com/parks/15685, Ionia ,5,,454,"178 Washington Street, Saranac, MI, 48881",42.93399,-85.20615,42.9259188,-85.2173596,78,18
375,375,491,Long Lake Mobile Home Estates,https://www.mhvillage.com/parks/504, Ionia ,25,,456,"2701 West Long Lake Road, Orleans, MI, 48865",43.07627,-85.10939,43.1083699,-85.1293285,91,33
376,376,492,Pine View Trailer Park,https://www.mhvillage.com/parks/15683, Ionia ,20,,457,"6385 Whites Bride Road, Belding, MI, 48809",43.04999,-85.22343,43.0793763,-85.2630195,91,33
377,377,493,Hidden Valley Mobile Home Park,https://www.mhvillage.com/parks/15689, Ionia ,50,,458,"3856 South Stage Road, Ionia, MI, 48846",42.98166,-85.0551,42.9970643,-84.9953839,78,33
378,378,494,West Wind Court,https://www.mhvillage.com/parks/15686, Ionia ,11,,459,"5448 West Grand River Ave, Portland, MI, 48875",42.85464,-84.9269,42.8715635,-84.9103193,78,33
379,379,495,Carl Chase,https://www.mhvillage.com/parks/16000, Ionia ,,,460,"2020 Johnson Road, Saranac, MI, 48881",42.93399,-85.20615,42.9579607,-85.1741917,78,33
380,380,496,Schmid Farm Estates,https://www.mhvillage.com/parks/87313, Ionia ,14,,461,"5590 N State Road, Orleans, MI, 48865",43.07627,-85.10939,43.0699182,-85.0751233,91,33
381,381,497,Sunset View Mobile Home Park,https://www.mhvillage.com/parks/15692, Ionia ,35,,462,"926 Hill Street, Portland, MI, 48875",42.85464,-84.9269,42.8617107,-84.8978163,78,33
382,382,498,Slater's Mobile Home Village,https://www.mhvillage.com/parks/530, Ionia ,,,463,"728 Jordan Lake Avenue, Lake Odessa, MI, 48849",42.80836,-85.14312,42.7783414,-85.1329809,78,18
383,383,500,Northern Pines,https://www.mhvillage.com/parks/15995, Oscoda ,30,700,935,"6720 South Drive, Hale, MI, 48739",44.38296,-83.79446,44.3829561,-83.7945478,99,36
384,384,501,White Pine Ridge,https://www.mhvillage.com/parks/15817, Oscoda ,,,946,"6721 South Drive, Hale, MI, 48739",44.39344,-83.81642,44.382701,-83.791736,99,36
386,386,503,The Crossings On Broadway,https://www.mhvillage.com/parks/16022, Isabella ,225,,480,"5402 East Broadway Road, Mount Pleasant, MI, 48858",43.60401,-84.74175,43.6016718,-84.7407989,92,34
387,387,504,Summerhill Village,https://www.mhvillage.com/parks/15633, Isabella ,305,285,481,"5280 Mission Road, Mount Pleasant, MI, 48858",43.61887,-84.79772,43.5645399,-84.7673623,92,34
388,388,505,Oakview Mobile Estates,https://www.mhvillage.com/parks/15631, Isabella ,46,,482,"1800 East Jordan Road, Mount Pleasant, MI, 48858",43.61887,-84.79772,43.65363120000001,-84.8139713,92,34
389,389,506,Broadway Acres,https://www.mhvillage.com/parks/15720, Isabella ,71,,483,"5400 Kay Street, Mount Pleasant, MI, 48858",43.608,-84.73948,43.60800039999999,-84.7394781,92,34
390,390,507,Country Place Park,https://www.mhvillage.com/parks/15634, Isabella ,66,,484,"4151 East Jordan Road, Mount Pleasant, MI, 48858",43.61887,-84.79772,43.6550064,-84.765911,92,34
391,391,508,Isabella Village,https://www.mhvillage.com/parks/15905, Isabella ,170,400,479,"5232 East Broadway Road, Mount Pleasant, MI, 48858",43.60358,-84.74468,43.6010256,-84.7451522,92,34
392,392,509,Maple View Estates East,https://www.mhvillage.com/parks/15635, Isabella ,136,200,485,"1955 S. Chippewa Road, Mount Pleasant, MI, 48858",43.61224,-84.62801,43.6122463,-84.6275583,92,34
393,393,510,Mount Pleasant Mobile Home Park,https://www.mhvillage.com/parks/15588, Isabella ,120,,486,"505 South Bradley Rd., Mount Pleasant, MI, 48858",43.61887,-84.79772,43.599702,-84.796278,92,34
394,394,511,Broomfield Valley Mobile Home Park,https://www.mhvillage.com/parks/15587, Isabella ,85,,487,"6553 West Remus Road, Mount Pleasant, MI, 48858",43.61887,-84.79772,43.5958945,-84.981865,92,34
395,395,512,Alexander's Mobile Village,https://www.mhvillage.com/parks/33825, Isabella ,20,,488,"8649 South Loomis Road, Shepherd, MI, 48883",43.56428,-84.697,43.5160026,-84.6669656,92,34
396,396,513,Maple View Estates West,https://www.mhvillage.com/parks/15632, Isabella ,37,,489,"10749 East Pickard, Mount Pleasant, MI, 48858",43.61887,-84.79772,43.6132529,-84.6314973,92,34
397,397,514,Westwind Mobile Home Park,https://www.mhvillage.com/parks/15636, Isabella ,,,490,"3640 East Rosebush Road, Rosebush, MI, 48878",43.70936,-84.76817,43.6980825,-84.7756986,92,34
398,398,515,Sherman Oaks,https://www.mhvillage.com/parks/347, Jackson ,366,,492,"1144 Sherman Blvd., Jackson, MI, 49201",42.33629,-84.41924,42.3362918,-84.4192362,45,14
399,399,516,Windham Hills,https://www.mhvillage.com/parks/15980, Jackson ,420,,493,"4020 County Farm Road, Jackson, MI, 49201",42.2594,-84.37935,42.2805225,-84.4764329,46,14
400,400,517,Hillanlake Village Mobile Home Park,https://www.mhvillage.com/parks/15377, Jackson ,151,,495,"3998 Sunset Drive, Brooklyn, MI, 49230",42.09382,-84.22136,42.0876353,-84.1885133,47,14
401,401,519,Coachman's Cove,https://www.mhvillage.com/parks/399, Jackson ,246,385,496,"6600 Portage Lake Road, Munith, MI, 49259",42.37239,-84.24817,42.3304705,-84.2272209,48,14
402,402,520,Cozy Manufactured Home Community,https://www.mhvillage.com/parks/397, Jackson ,206,,494,"1259 East Mcdevitt Road, Jackson, MI, 49203",42.19499,-84.38051,42.1949774,-84.380581,47,14
403,403,521,Spring Valley Estates,https://www.mhvillage.com/parks/394, Jackson ,94,370,499,"121 Split Rail Trail, Hanover, MI, 49241",42.09807,-84.54466,42.1005522,-84.5445883,45,14
404,404,522,Three Oaks Estates,https://www.mhvillage.com/parks/15540, Jackson ,44,,500,"13380 Michigan 60, Concord, MI, 49237",42.1768,-84.64385,42.1278092,-84.919046,45,17
405,405,523,Spring Harbor,https://www.mhvillage.com/parks/5736, Jackson ,81,,501,"271 Green St., Springport, MI, 49284",42.37553,-84.68605,42.3755092,-84.68615,45,17
406,406,524,Sun Valley Estates,https://www.mhvillage.com/parks/344, Jackson ,184,,502,"301 Mantle Avenue, Jackson, MI, 49202",42.25854,-84.37015,42.2584471,-84.370178,46,14
407,407,525,The Reserves,https://www.mhvillage.com/parks/439, Jackson ,304,418,503,"3999 Sherwood Lakes Boulevard, Jackson, MI, 49201",42.29109,-84.44512,42.2907325,-84.4449045,46,14
408,408,526,Arbor Village,https://www.mhvillage.com/parks/15376, Jackson ,266,360,504,"7940 South Circle Drive, Parma, MI, 49269",42.29845,-84.59764,42.2271986,-84.5548263,45,14
409,409,527,Indian Village,https://www.mhvillage.com/parks/15351, Jackson ,294,,505,"2600 East South Street, Jackson, MI, 49201",42.2594,-84.37935,42.2209435,-84.3567099,46,14
410,410,528,Jackson Mobile Home Park,https://www.mhvillage.com/parks/15538, Jackson ,80,460,497,"2240 Brooklyn Road, Jackson, MI, 49203",42.21266,-84.39559,42.219892,-84.387188,47,14
411,411,529,Michigan Avenue Estates,https://www.mhvillage.com/parks/15438, Jackson ,39,,506,"3921 West Michigan Avenue, Jackson, MI, 49202",42.27538,-84.40753,42.2541439,-84.466318,46,14
412,412,530,Pleasant Lake Mobile Home Court,https://www.mhvillage.com/parks/15535, Jackson ,57,,507,"11711 Bunkerhill Road, Pleasant Lake, MI, 49272",42.38781,-84.34844,42.3803008,-84.3239435,45,14
413,413,531,Shady Park Mobile Home Court,https://www.mhvillage.com/parks/15534, Jackson ,23,,508,"4000 East South Street, Jackson, MI, 49201",42.2594,-84.37935,42.20282,-84.3421369,47,14
414,414,532,Walnut Ridge,https://www.mhvillage.com/parks/15962, Jackson ,299,,509,"3001 West Parnall Road, Jackson, MI, 49201",42.2594,-84.37935,42.290945,-84.4443184,46,14
415,415,533,Sherwood Forest,https://www.mhvillage.com/parks/40284, Jackson ,200,,510,"7945 Dunn Road, Munith, MI, 49259",42.37239,-84.24817,42.3483589,-84.2615983,46,14
416,416,534,Miller Trailer Village,https://www.mhvillage.com/parks/15536, Jackson ,55,,511,"3500 South Dearing Road, Spring Arbor, MI, 49283",42.20021,-84.56956,42.2101772,-84.5410371,45,14
417,417,535,Vinings Trailer Park,https://www.mhvillage.com/parks/32872, Jackson ,199,,512,"105 Portage Lake Road, Munith, MI, 49259",42.37239,-84.24817,42.339483,-84.2274857,48,14
418,418,536,Andry's On The Lake,https://www.mhvillage.com/parks/16052, Jackson ,160,,513,"7740 Mount Hope Road, Grass Lake, MI, 49240",42.28988,-84.19142,42.34332819999999,-84.2099319,48,14
419,419,546,Wyngate Farms,https://www.mhvillage.com/parks/15870, Kalamazoo ,333,400,514,"5560 Al Sabo Drive, Kalamazoo, MI, 49009",42.30008,-85.67871,42.2355202,-85.6723824,40,19
420,420,547,Colonial Manor,https://www.mhvillage.com/parks/15541, Kalamazoo ,195,,523,"5500 West Kl Avenue, Kalamazoo, MI, 49009",42.28097,-85.65886,42.2809651,-85.6588647,40,19
421,421,548,Saddlebrook Farms,https://www.mhvillage.com/parks/16006, Kalamazoo ,147,410,515,"5053 S. Fourth, Kalamazoo, MI, 49009",42.30008,-85.67871,42.2445142,-85.7254926,40,19
422,422,549,Hillcrest Acres,https://www.mhvillage.com/parks/15868, Kalamazoo ,150,,517,"3205 Douglas Ave., Kalamazoo, MI, 49004",42.32271,-85.60429,42.322709,-85.6042927,41,19
423,423,550,Weatherstone Village Community,https://www.mhvillage.com/parks/15977, Kalamazoo ,93,608,518,"5210 Marsh Arbor Trail, Kalamazoo, MI, 49004",42.35437,-85.57046,42.3341196,-85.5247838,42,19
424,424,551,Colonial Acres,https://www.mhvillage.com/parks/441, Kalamazoo ,612,,524,"5374 E. Deadwood Drive, Portage, MI, 49002",42.24031,-85.54112,42.2403295,-85.5411639,41,19
425,425,552,Royal Estates,https://www.mhvillage.com/parks/15341, Kalamazoo ,183,454,519,"8300 Ravine Road, Kalamazoo, MI, 49009",42.30008,-85.67871,42.3801156,-85.6786041,42,19
426,426,553,Fountain Springs,https://www.mhvillage.com/parks/586, Kalamazoo ,327,460,520,"1410 South 9th Street, Kalamazoo, MI, 49009",42.30008,-85.67871,42.2770509,-85.6807271,40,19
427,427,554,Pavilion Estates MHC,https://www.mhvillage.com/parks/15339, Kalamazoo ,531,369,521,"6830 E N Avenue, Kalamazoo, MI, 49048",42.24486,-85.49586,42.2411453,-85.4979902,42,19
428,428,555,Huntington Run,https://www.mhvillage.com/parks/15940, Kalamazoo ,175,,527,"6255 Cranbrook Lane, Kalamazoo, MI, 49009",42.25554,-85.67135,42.2563918,-85.6710985,40,19
429,429,556,Saddlebrook Village,https://www.mhvillage.com/parks/48601, Kalamazoo ,142,,522,"503 South Fourth, Kalamazoo, MI, 49009",42.30008,-85.67871,42.2841,-85.7247139,40,19
430,430,557,Twinleaf,https://www.mhvillage.com/parks/15335, Kalamazoo ,185,849,525,"3614 Stadium Drive, Kalamazoo, MI, 49008",42.26511,-85.61897,42.2727995,-85.6346095,41,19
431,431,558,Americana Estates,https://www.mhvillage.com/parks/15497, Kalamazoo ,161,393,526,"1802 Tray Lane, Kalamazoo, MI, 49006",42.3008,-85.62484,42.2745728,-85.6433651,41,19
432,432,559,Sugarloaf Mobile Home Park,https://www.mhvillage.com/parks/15488, Kalamazoo ,57,367,528,"11443 Bonnie Dr, Schoolcraft, MI, 49087",42.15079,-85.62805,42.1508027,-85.6280553,42,19
433,433,560,Evergreen Park,https://www.mhvillage.com/parks/419, Kalamazoo ,76,,529,"182 East D Avenue, Kalamazoo, MI, 49009",42.30008,-85.67871,42.37595109999999,-85.5883796,42,19
434,434,561,Richland MHC,https://www.mhvillage.com/parks/417, Kalamazoo ,45,,530,"9604 East M-89, Richland, MI, 49083",42.37703,-85.45947,42.3752692,-85.4422015,42,19
435,435,562,Climax MHP,https://www.mhvillage.com/parks/15494, Kalamazoo ,75,310,532,"14253 East On Avenue, Climax, MI, 49034",42.23909,-85.34544,42.238466,-85.3504023,45,18
436,436,563,Country Acres,https://www.mhvillage.com/parks/15725, Wexford ,200,,1182,"300 Kristy Jo, Cadillac, MI, 49601",44.24871,-85.4407,44.2485609,-85.4399349,101,36
437,437,564,Gale Valley Estates,https://www.mhvillage.com/parks/316, Kalamazoo ,226,,534,"353 East Michigan Avenue, Galesburg, MI, 49053",42.28488,-85.41088,42.2891773,-85.4067324,42,19
438,438,565,Oak Brook Estates,https://www.mhvillage.com/parks/15902, Kalamazoo ,134,,535,"7200 Lovers Lane, Portage, MI, 49002",42.19698,-85.55991,42.2117624,-85.5750558,40,19
439,439,566,Portage Terrace Mobile Home Park,https://www.mhvillage.com/parks/15491, Kalamazoo ,81,,536,"11247 Portage Road, Portage, MI, 49002",42.15373,-85.56545,42.153742,-85.565451,42,19
440,440,575,Mobile Home Estates,https://www.mhvillage.com/parks/15821, Kalkaska ,50,,537,"2012 East Estate Road, Kalkaska, MI, 49646",44.71867,-85.09015,44.7429467,-85.1799413,104,36
441,441,576,Country Meadows Village,https://www.mhvillage.com/parks/15960, Kent ,307,,546,"5401 76th SE, Caledonia, MI, 49316",42.78644,-85.54563,42.8317121,-85.5341852,79,18
442,442,577,Leonard Gardens,https://www.mhvillage.com/parks/577, Kent ,319,,547,"4524 Leonard NW, Grand Rapids, MI, 49534",42.97102,-85.79108,42.985098,-85.7826822,84,30
443,443,578,Pinebrook Village,https://www.mhvillage.com/parks/15260, Kent ,185,,549,"444 Bellewood Street SE, Grand Rapids, MI, 49548",42.86682,-85.66334,42.8599532,-85.6518362,80,29
444,444,579,Alpine Meadows,https://www.mhvillage.com/parks/15037, Kent ,403,,550,"3800 Fruitridge Avenue NW, Grand Rapids, MI, 49544",43.05124,-85.73307,43.0345984,-85.7602561,90,30
445,445,580,"Key Vista, MHC",https://www.mhvillage.com/parks/15263, Kent ,137,495,551,"1800 West Main Street, Lowell, MI, 49331",42.93103,-85.35858,42.9300363,-85.3592321,78,18
446,446,581,Byron Center,https://www.mhvillage.com/parks/33822, Kent ,143,,552,"2680 84th Street, Byron Center, MI, 49315",42.81036,-85.72937,42.8093554,-85.7301261,79,20
447,447,582,Camelot Manor,https://www.mhvillage.com/parks/15040, Kent ,335,,553,"170 Camelot Blvd, Grand Rapids, MI, 49548",42.86682,-85.66334,42.849881,-85.668588,83,20
448,448,583,Cedar Springs Mobile Estates,https://www.mhvillage.com/parks/15245, Kent ,216,450,555,"400 Susan, Cedar Springs, MI, 49319",43.23061,-85.51268,43.2307095,-85.5484729,91,33
449,449,584,Holiday Estates,https://www.mhvillage.com/parks/15303, Wayne ,551,,1166,"46000 Geddes Road Lot 416, Canton, MI, 48188",42.28145,-83.49234,42.27960400000001,-83.4924674,25,5
450,450,587,Key Heights Village,https://www.mhvillage.com/parks/15253, Kent ,286,495,559,"11335 East Fulton Street, Lowell, MI, 49331",42.9646,-85.37632,42.9319061,-85.3882709,78,18
451,451,588,Cutler Estates,https://www.mhvillage.com/parks/15049, Kent ,259,,560,"6471 South Division, Grand Rapids, MI, 49548",42.82086,-85.66357,42.86447709999999,-85.6588999,80,29
452,452,589,Grand Village,https://www.mhvillage.com/parks/169, Kent ,230,,561,"6500 South Division Avenue, Grand Rapids, MI, 49548",42.82086,-85.66357,42.8469142,-85.6608261,79,20
453,453,590,Dutton Mill Village,https://www.mhvillage.com/parks/15036, Kent ,307,,562,"6720 West Mill Run SE, Caledonia, MI, 49316",42.84126,-85.5783,42.8455728,-85.5779327,79,20
454,454,591,Algoma Estates,https://www.mhvillage.com/parks/161, Montcalm ,343,395,788,"4456 13 Mile Road, Rockford, MI, 49341",43.12562,-85.49424,43.1607264,-85.5598418,90,33
455,455,592,Brookside Village,https://www.mhvillage.com/parks/15877, Kent ,196,,565,"3130 Slater Ave SE, Kentwood, MI, 49512",42.90659,-85.55911,42.9065768,-85.5591182,80,29
456,456,593,Ferrand Estates,https://www.mhvillage.com/parks/172, Kent ,420,459,566,"4528 Halifax SW, Wyoming, MI, 49519",42.88233,-85.73019,42.8823155,-85.7301976,83,29
457,457,596,Brentwood Village,https://www.mhvillage.com/parks/15041, Kent ,195,,570,"201 60th Street SE, Kentwood, MI, 49548",42.86682,-85.66334,42.8565478,-85.6582577,80,29
458,458,597,Riverview Manufactured Housing Community,https://www.mhvillage.com/parks/15096, Kent ,154,,571,"95 Viking Drive, Sparta, MI, 49345",43.16063,-85.69073,43.1912069,-85.6831993,90,33
459,459,598,Southwood Village,https://www.mhvillage.com/parks/171, Kent ,394,406,548,"440 60th Street SE, Grand Rapids, MI, 49548",42.86682,-85.66334,42.8514881,-85.6531206,79,20
460,460,600,The Oaks of Rockford,https://www.mhvillage.com/parks/104025, Montcalm ,262,525,790,"11640 Townsquare Blvd, Rockford, MI, 49341",43.12562,-85.49424,43.1767877,-85.5264605,90,33
461,461,605,Creekside,https://www.mhvillage.com/parks/15099, Kent ,165,527,568,"5100 Clyde Park Avenue SW, Wyoming, MI, 49509",42.90216,-85.69671,42.87206159999999,-85.6826526,83,29
462,462,613,Lakeside Village,https://www.mhvillage.com/parks/281, Montcalm ,67,500,794,"12205 Hart Street, Greenville, MI, 48838",43.13567,-85.36587,43.1244958,-85.3665826,91,33
463,463,619,Spring Valley Mobile Home Park,https://www.mhvillage.com/parks/15262, Montcalm ,52,525,795,"6460 Northland Drive, Rockford, MI, 49341",43.12562,-85.49424,43.0801072,-85.5664261,90,30
464,464,621,Whispering Pines,https://www.mhvillage.com/parks/15385, Van Buren ,104,,1119,"67663 County Road 388, South Haven, MI, 49090",42.41813,-86.22021,42.4028076,-86.2033221,39,20
465,465,627,Lincoln Pines Resort Inc,https://www.mhvillage.com/parks/287, Montcalm ,156,,800,"13033 19 Mile Road, Gowen, MI, 49326",43.24926,-85.32648,43.253523,-85.348873,91,33
466,466,633,Side-O-Lake Resort Park,https://www.mhvillage.com/parks/15261, Montcalm ,45,,805,"15301 Lakeshore Drive, Gowen, MI, 49326",43.24926,-85.32648,43.2645722,-85.3367537,91,33
467,467,636,La-E-Ma Land Mobile Home Park,https://www.mhvillage.com/parks/15254, Montcalm ,29,,809,"7825 Cannonsburg Road, Rockford, MI, 49341",43.12562,-85.49424,43.0562895,-85.4741252,90,33
468,468,642,Pine Lakes Mobile Home Park,https://www.mhvillage.com/parks/15993, Lapeer ,163,525,572,"110 Pine Lakes Drive, Lapeer, MI, 48446",43.0454,-83.23808,43.0442215,-83.2378906,67,26
469,469,643,Ideal Villa Mobile Home Park,https://www.mhvillage.com/parks/15302, Lapeer ,168,,573,"3660 South Lapeer Road, Metamora, MI, 48455",42.94319,-83.30183,42.9506015,-83.3138798,67,24
470,470,644,Hunters Creek,https://www.mhvillage.com/parks/15872, Lapeer ,402,330,575,"725 Demille Road, Lapeer, MI, 48446",43.05416,-83.33011,43.03889909999999,-83.313465,67,26
471,471,645,River Ridge,https://www.mhvillage.com/parks/30003, Washtenaw ,288,420,1137,"289 Dundee, Saline, MI, 48176",42.14439,-83.81735,42.1564621,-83.7991778,33,15
472,472,646,Crestview Manor,https://www.mhvillage.com/parks/15542, Lapeer ,200,375,577,"1485 Ridgeview Drive, Lapeer, MI, 48446",43.05416,-83.33011,43.0659687,-83.3139937,67,26
473,473,647,Deerfield Pines,https://www.mhvillage.com/parks/15929, Lapeer ,122,350,578,"82 Deerfield Pines Drive, North Branch, MI, 48461",43.21108,-83.22283,43.1928692,-83.3140915,67,26
474,474,648,Kingsbrook Estates,https://www.mhvillage.com/parks/443, Lapeer ,233,,579,"4600 N. Van Dyke Road, Almont, MI, 48003",42.93551,-83.04396,42.932731,-83.0553442,65,24
475,475,649,Lapeer Meadows,https://www.mhvillage.com/parks/15544, Lapeer ,228,290,580,"1265 Farnsworth Road, Lapeer, MI, 48446",43.05416,-83.33011,43.067656,-83.298828,67,26
476,476,650,North Branch Meadows,https://www.mhvillage.com/parks/16007, Lapeer ,127,,581,"6800 Lydia Boulevard, North Branch, MI, 48461",43.21108,-83.22283,43.2325498,-83.1825622,98,26
477,477,651,Sand Hill Estates,https://www.mhvillage.com/parks/15546, Lapeer ,50,,582,"4063 Bowers Road, Attica, MI, 48412",43.06305,-83.16774,43.0624004,-83.1849594,65,26
478,478,652,Victoria Meadows,https://www.mhvillage.com/parks/15963, Lapeer ,130,320,583,"3750 Nash Lane, Dryden, MI, 48428",42.93839,-83.15914,42.9507007,-83.1272617,65,24
479,479,653,Garner Drive Mobile Home Park,https://www.mhvillage.com/parks/15545, Lapeer ,18,,584,"Garner Drive, Imlay City, MI, 48444",43.06429,-83.04903,43.0471982,-83.1164423,65,26
480,480,654,Sterling Estates,https://www.mhvillage.com/parks/15148, Macomb ,760,629,670,"43475 La Grand Boulevard, Sterling Heights, MI, 48314",42.60928,-83.0516,42.612433,-83.0377214,57,9
481,481,655,Maple Woods,https://www.mhvillage.com/parks/522, Lenawee ,285,415,600,"1550 West Beecher Road, Adrian, MI, 49221",41.89354,-84.06128,41.8895902,-84.0711469,34,16
482,482,656,Hidden River North,https://www.mhvillage.com/parks/15930, Lenawee ,211,,601,"975 Beecher Road, Adrian, MI, 49221",41.89354,-84.06128,41.8871905,-84.0528058,34,16
483,483,657,Round Lake Estates,https://www.mhvillage.com/parks/589, Lenawee ,109,360,602,"787 Stoneham, Manitou Beach, MI, 49253",41.9644,-84.28753,41.9642638,-84.2875154,34,16
484,484,658,Newburg Meadows,https://www.mhvillage.com/parks/369, Lenawee ,135,375,603,"9115 North Union Street, Tecumseh, MI, 49286",42.01141,-83.91696,42.0219132,-83.9542972,34,15
485,485,659,Bean Creek Resort,https://www.mhvillage.com/parks/15405, Lenawee ,72,,604,"9575 Devils Lake Highway, Manitou Beach, MI, 49253",41.97564,-84.27058,41.982937,-84.313845,34,16
486,486,660,Hidden River South,https://www.mhvillage.com/parks/16023, Lenawee ,202,,605,"3251 South Adrian Highway, Adrian, MI, 49221",41.89354,-84.06128,41.8709852,-84.0380035,34,16
487,487,661,Coach Light Estates,https://www.mhvillage.com/parks/309, Lenawee ,230,,606,"650 West Adrian Street, Blissfield, MI, 49228",41.81319,-83.86387,41.83709169999999,-83.8794797,34,16
488,488,662,Country Villa,https://www.mhvillage.com/parks/371, Lenawee ,73,675,611,"12919 Tipton Highway, Clinton, MI, 49236",42.08586,-83.95871,42.07035,-84.065029,34,16
489,489,663,Friendly Village Of Adrian,https://www.mhvillage.com/parks/15347, Lenawee ,179,378,607,"1100 South Main Street, Adrian, MI, 49221",41.89354,-84.06128,41.88225490000001,-84.0474904,34,16
490,490,664,Leffingwell Estates,https://www.mhvillage.com/parks/15401, Lenawee ,70,,608,"595 South Meridian Road, Hudson, MI, 49247",41.85379,-84.33698,41.8417689,-84.3575368,34,16
491,491,665,Water Wheel Community,https://www.mhvillage.com/parks/15345, Lenawee ,172,372,610,"316 West Michigan Avenue, Clinton, MI, 49236",42.08586,-83.95871,42.0793807,-83.9806255,33,15
492,492,666,Raisin Valley Estates,https://www.mhvillage.com/parks/15403, Lenawee ,27,,612,"4897 N. Adrian Hwy, Adrian, MI, 49221",41.95703,-84.00383,41.9570358,-84.0037646,34,16
493,493,667,Water's Edge,https://www.mhvillage.com/parks/110884, Lenawee ,48,,613,"Devils Lake Highway, Manitou Beach, MI, 49253",41.97564,-84.27058,42.0015876,-84.2956605,34,16
494,494,668,Clinton Estates,https://www.mhvillage.com/parks/40692, Lenawee ,30,,614,"1801 West Michigan Avenue, Clinton, MI, 49236",42.08586,-83.95871,42.0711939,-83.9878943,34,15
495,495,669,King Mobile Home Court,https://www.mhvillage.com/parks/15346, Lenawee ,123,,615,"1142 Lansing Street, Adrian, MI, 49221",41.89354,-84.06128,41.8871515,-84.0227836,34,16
496,496,670,Southgate Mobile Park,https://www.mhvillage.com/parks/15400, Lenawee ,48,325,616,"2425 East Us Highway 223, Adrian, MI, 49221",41.87328,-84.0143,41.873281,-84.014295,34,16
497,497,671,Adrian Estates,https://www.mhvillage.com/parks/15547, Lenawee ,26,,617,"1003 Lansing Street, Adrian, MI, 49221",41.89354,-84.06128,41.888262,-84.023,34,16
498,498,672,Lee Villa Mobile Home Park,https://www.mhvillage.com/parks/15404, Lenawee ,113,342,618,"2985 Gady Road, Adrian, MI, 49221",41.89354,-84.06128,41.9625207,-83.9679771,34,16
499,499,673,Robinhood Mobile Court,https://www.mhvillage.com/parks/15402, Lenawee ,25,,619,"3180 North Adrian, Adrian, MI, 49221",41.89354,-84.06128,41.9290637,-84.0088101,34,16
500,500,674,Silver Lawn Mobile Park,https://www.mhvillage.com/parks/54881, Lenawee ,,,620,"10891 Cement City Highway, Addison, MI, 49220",42.04354,-84.31813,42.0435847,-84.318197,34,16
501,501,675,Sylvan Glen Estates,https://www.mhvillage.com/parks/341, Livingston ,476,397,621,"6600 Grand River, Brighton, MI, 48114",42.57775,-83.7528,42.5700578,-83.8222379,48,22
502,502,676,Brighton Village,https://www.mhvillage.com/parks/388, Livingston ,195,,623,"7500 Grand River Rd., Brighton, MI, 48114",42.54329,-83.78787,42.564245,-83.8055312,48,22
503,503,677,Hartland Meadows,https://www.mhvillage.com/parks/15965, Livingston ,617,525,624,"13634 W Highland Rd, Hartland, MI, 48353",42.6449,-83.71859,42.6347409,-83.6873601,50,22
504,504,678,Burkhart Ridge,https://www.mhvillage.com/parks/15997, Livingston ,306,480,625,"1011 River Line Drive, Howell, MI, 48843",42.57271,-83.91015,42.6145415,-84.003374,50,22
505,505,679,Howell Estates,https://www.mhvillage.com/parks/15420, Livingston ,455,,626,"515 Mason Road, Howell, MI, 48843",42.60019,-83.94013,42.5993278,-83.9387404,50,22
506,506,680,Cedar River Estates,https://www.mhvillage.com/parks/15421, Livingston ,118,,627,"400 Cedar River Drive, Fowlerville, MI, 48836",42.66427,-84.0605,42.6530631,-84.0763563,50,22
507,507,681,Alan's Park,https://www.mhvillage.com/parks/374, Shiawassee ,32,,1086,"11785 Lansing Road, Durand, MI, 48429",42.89658,-84.00732,42.9467767,-83.9339517,71,28
508,508,682,Grandshire Estates,https://www.mhvillage.com/parks/15715, Livingston ,151,550,629,"851 Willow Street, Fowlerville, MI, 48836",42.66427,-84.0605,42.6506436,-84.0781804,50,22
509,509,683,Lake Chemung Outdoor Resort,https://www.mhvillage.com/parks/16058, Livingston ,335,150,630,"320 South Hughes Road, Howell, MI, 48843",42.57271,-83.91015,42.5932464,-83.8532538,48,22
510,510,685,Woodland Park & Sales,https://www.mhvillage.com/parks/15415, Livingston ,65,400,632,"8005 West Grand River Avenue, Brighton, MI, 48114",42.5435,-83.78799,42.5582278,-83.7936659,49,22
511,511,686,Fairlawn Meadows,https://www.mhvillage.com/parks/384, Livingston ,48,,633,"1701 Fairlawn Road, Howell, MI, 48843",42.57271,-83.91015,42.6233036,-83.9148991,50,22
512,512,687,Fairlane Estates Mobile Home Park,https://www.mhvillage.com/parks/15418, Livingston ,60,,634,"2195 East Grand River, Howell, MI, 48843",42.57271,-83.91015,42.6012683,-83.9099037,50,22
513,513,688,Starlight Trailer Court,https://www.mhvillage.com/parks/15413, Livingston ,48,,635,"7175 Bishop Road, Brighton, MI, 48116",42.50307,-83.76896,42.4982226,-83.7538808,49,22
514,514,689,Brighton Trailer Court,https://www.mhvillage.com/parks/15422, Livingston ,9,,636,"614 Flint Road, Brighton, MI, 48116",42.50307,-83.76896,42.53783139999999,-83.7771744,49,22
515,515,690,Red Oaks Of Chemung,https://www.mhvillage.com/parks/16032, Livingston ,,,637,"102 East Grand River Avenue, Howell, MI, 48843",42.57271,-83.91015,42.6073108,-83.9292883,50,22
516,516,691,Waldon Woods Family Recreation Resort,https://www.mhvillage.com/parks/16055, Livingston ,,,638,"2975 North Old Us 23, Howell, MI, 48855",42.6469,-83.75867,42.6470075,-83.7560893,50,22
517,517,692,River's Edge,https://www.mhvillage.com/parks/15046, Macomb ,1000,,654,"38000 Le Chateau Blvd, Clinton Township, MI, 48038",42.57442,-82.96078,42.5739556,-82.9609057,61,11
518,518,693,Shelby Forest,https://www.mhvillage.com/parks/256, Macomb ,664,447,656,"13955 Bronte Drive, Shelby Township, MI, 48315",42.67107,-83.00109,42.662669,-82.986443,59,24
519,519,694,Shelby West,https://www.mhvillage.com/parks/15708, Macomb ,644,,657,"12277 Conservation Trail, Shelby Township, MI, 48315",42.67107,-83.00109,42.6591155,-83.0079371,59,24
520,520,695,Lafayette Place,https://www.mhvillage.com/parks/15065, Macomb ,254,,658,"21155 Warner, Warren, MI, 48091",42.45129,-83.07388,42.4510759,-83.0768119,14,3
521,521,696,East Village Estates,https://www.mhvillage.com/parks/253, Macomb ,708,,659,"57400 Bedford Blvd., Washington, MI, 48094",42.71725,-83.02236,42.7177036,-83.0218478,66,24
522,522,697,Springbrook Estates,https://www.mhvillage.com/parks/15147, Macomb ,398,675,663,"71400 Van Dyke Road, Romeo, MI, 48065",42.81963,-83.01812,42.8199378,-83.0168812,66,24
523,523,698,Rudgate Manor,https://www.mhvillage.com/parks/15089, Macomb ,931,400,664,"5150 Rudgate Boulevard, Sterling Heights, MI, 48310",42.56452,-83.06894,42.59056090000001,-83.0598251,57,9
524,524,699,Carriage Way,https://www.mhvillage.com/parks/222, Saint Clair ,798,,1024,"29800 Guilford Circle, Chesterfield, MI, 48051",42.67515,-82.81371,42.6849374,-82.8098992,63,12
525,525,700,Silver Springs,https://www.mhvillage.com/parks/37937, Saint Clair ,547,,1025,"43600 Park Drive West, Clinton Township, MI, 48036",42.59859,-82.91368,42.614453,-82.8761759,61,12
526,526,701,Rudgate Clinton,https://www.mhvillage.com/parks/302, Macomb ,667,,667,"20475 Foster Drive, Clinton Township, MI, 48036",42.57842,-82.91662,42.57779559999999,-82.9138487,61,11
527,527,702,Pine Crest Estates,https://www.mhvillage.com/parks/31376, Saint Clair ,214,440,1026,"30086 Pineview Circle, Chesterfield, MI, 48051",42.67515,-82.81371,42.6876874,-82.8054796,63,12
528,528,703,Dequindre Estates,https://www.mhvillage.com/parks/15707, Macomb ,303,,669,"2017 Shirewood Dr., Shelby Township, MI, 48317",42.65294,-83.09154,42.6529356,-83.0915361,59,24
529,529,704,Westbridge Manor,https://www.mhvillage.com/parks/251, Saint Clair ,1446,500,1028,"45301 Chateau Thierry Blvd., Macomb, MI, 48044",42.65061,-82.92604,42.6326105,-82.9037598,60,11
530,530,705,Glennwood Village,https://www.mhvillage.com/parks/15233, Macomb ,147,659,677,"2526 Morrissey Road, Warren, MI, 48091",42.46934,-83.05494,42.4663402,-83.0770739,14,3
531,531,706,Millstone Pond,https://www.mhvillage.com/parks/32594, Saint Clair ,263,417,1030,"37781 Sandstone Trail, Lenox, MI, 48048",42.74174,-82.79775,42.7250637,-82.7337618,65,25
532,532,707,Fairchild Lake,https://www.mhvillage.com/parks/15138, Saint Clair ,300,485,1034,"49645 Au Lac Road, Chesterfield, MI, 48051",42.67515,-82.81371,42.6648105,-82.8541974,63,12
533,533,708,Willow Point,https://www.mhvillage.com/parks/33956, Saint Clair ,284,381,1037,"43400 Lenfesty Drive, Harrison Township, MI, 48045",42.61222,-82.85886,42.613929,-82.8580047,62,12
534,534,709,Westbrook,https://www.mhvillage.com/parks/126708, Saint Clair ,,,1038,"45013 Catalpa Blvd., Macomb, MI, 48044",42.6296,-82.90159,42.6296001,-82.9016203,60,11
535,535,710,Leslie's Mobile Home Village,https://www.mhvillage.com/parks/15067, Macomb ,166,,678,"25214 Gratiot Avenue, Roseville, MI, 48066",42.50967,-82.93596,42.494843,-82.939134,12,11
536,536,711,Riverbrook,https://www.mhvillage.com/parks/224, Saint Clair ,390,,1041,"59477 Hardy Lane, New Haven, MI, 48048",42.74174,-82.79775,42.7394595,-82.7839228,65,25
537,537,712,Parkway Village LLC,https://www.mhvillage.com/parks/15090, Saint Clair ,242,347,1044,"23500 South Keystone Way, Clinton Township, MI, 48036",42.59859,-82.91368,42.612573,-82.864659,61,12
538,538,716,Richmond Place,https://www.mhvillage.com/parks/15145, Saint Clair ,117,,1035,"36401 Division Road, Richmond, MI, 48062",42.80925,-82.75075,42.8096041,-82.7513853,65,25
539,539,735,River Haven Estates,https://www.mhvillage.com/parks/15826, Mason ,65,,705,"24 Caberfae Highway, Manistee, MI, 49660",44.23921,-86.19861,44.26480460000001,-86.2979354,102,32
540,540,736,East Lake Estates,https://www.mhvillage.com/parks/16019, Mason ,197,,706,"829 Oregon Avenue, Manistee, MI, 49660",44.23921,-86.19861,44.2365737,-86.2947363,102,32
541,541,737,The Bluffs on Manistee Lake,https://www.mhvillage.com/parks/105890, Mason ,100,,708,"956 Tennessee Avenue, Manistee, MI, 49660",44.23582,-86.29581,44.2365547,-86.2958313,102,32
542,542,738,Forest Pines Manistee,https://www.mhvillage.com/parks/15591, Mason ,75,375,709,"1525 West County Line Road, Manistee, MI, 49660",44.23921,-86.19861,44.1753376,-86.3197794,102,32
543,543,739,Tamarac Village,https://www.mhvillage.com/parks/470, Mason ,293,,699,"2875 North Lakeshore Drive, Ludington, MI, 49431",43.96235,-86.39777,44.0086242,-86.4584858,102,32
544,544,740,Ludington Mobile Home Park,https://www.mhvillage.com/parks/15589, Mason ,68,,700,"5040 Rasmussen Road, Ludington, MI, 49431",43.96235,-86.39777,43.9744063,-86.405829,102,32
545,545,741,Hidden Forest,https://www.mhvillage.com/parks/30045, Mason ,116,407,701,"3626 West Hidden Forest Drive, Ludington, MI, 49431",43.96235,-86.39777,43.96026,-86.373122,102,32
546,546,742,Holiday Village Of Scottville,https://www.mhvillage.com/parks/15590, Mason ,150,,702,"1701 West Us Highway 10-31, Scottville, MI, 49454",43.95513,-86.32162,43.9552949,-86.3215982,102,32
547,547,743,Heritage Hills Mobile Home Estates,https://www.mhvillage.com/parks/15593, Mason ,30,,703,"3677 South Pere Marquette, Ludington, MI, 49431",43.96235,-86.39777,43.89050690000001,-86.4000201,102,32
548,548,744,Laman's Landing Resort,https://www.mhvillage.com/parks/15592, Mason ,32,,704,"6100 North Beaune Road, Ludington, MI, 49431",43.96235,-86.39777,44.0659337,-86.407886,102,32
549,549,745,Lakewood Mobile Home Park,https://www.mhvillage.com/parks/15618, Oceana ,40,300,896,"408 East Sands Street, Pentwater, MI, 49449",43.79434,-86.37572,43.7871347,-86.4281677,102,32
550,550,746,Big Rapids Mobile Home Court,https://www.mhvillage.com/parks/15579, Mecosta ,135,255,710,"606 Bjornson Street, Big Rapids, MI, 49307",43.7051,-85.51279,43.7083176,-85.4729372,100,34
551,551,747,Country Manor Estates,https://www.mhvillage.com/parks/15999, Mecosta ,78,300,711,"18500 Northland Drive, Big Rapids, MI, 49307",43.7051,-85.51279,43.7336497,-85.5000178,100,34
552,552,748,Holiday Terrace Mobile Home Park,https://www.mhvillage.com/parks/15594, Mecosta ,71,,712,"10845 Percy Lane, Mecosta, MI, 49332",43.63724,-85.24514,43.6240978,-85.3141165,100,34
553,553,749,Parks Place Estates,https://www.mhvillage.com/parks/528, Mecosta ,29,300,713,"14065 30th Avenue, Remus, MI, 49340",43.6693,-85.14673,43.669155,-85.1471923,100,34
554,554,750,Sunset Shores,https://www.mhvillage.com/parks/76392, Mecosta ,80,,714,"10406 Pierce Rd., Stanwood, MI, 49346",43.59275,-85.40347,43.577762,-85.292111,100,34
555,555,751,Haven View Mobile Home Court,https://www.mhvillage.com/parks/15596, Mecosta ,80,,715,"18505 Northland Drive, Big Rapids, MI, 49307",43.7051,-85.51279,43.7347297,-85.5042158,100,34
